city,lat,lng,country,iso2
Faizabad,37.1166,70.5800,Afghanistan,AF
Sheghnan,37.6167,71.4500,Afghanistan,AF
Ishkashim,36.7092,71.5739,Afghanistan,AF
Qal`ah-ye Now,34.9867,63.1292,Afghanistan,AF
Pul-e Khumri,35.9500,68.7000,Afghanistan,AF
Baghlan,36.1328,68.7000,Afghanistan,AF
Mazar-e Sharif,36.7000,67.1167,Afghanistan,AF
Balkh,36.7581,66.8981,Afghanistan,AF
Bala Koh,36.5753,66.8203,Afghanistan,AF
Khulm,36.6833,67.6833,Afghanistan,AF
Bamyan,34.8250,67.8333,Afghanistan,AF
Bazar-e Yakawlang,34.7333,66.9667,Afghanistan,AF
Panjab,34.3833,67.0167,Afghanistan,AF
Hukumati Gizab,33.3813,66.2655,Afghanistan,AF
Nili,33.7218,66.1302,Afghanistan,AF
Farah,32.3436,62.1194,Afghanistan,AF
Tujg,32.0686,61.8058,Afghanistan,AF
Maimanah,35.9333,64.7500,Afghanistan,AF
Andkhoy,36.9500,65.1167,Afghanistan,AF
Ghazni,33.5492,68.4233,Afghanistan,AF
Fayroz Koh,34.5225,65.2517,Afghanistan,AF
Taywarah,33.5100,64.4200,Afghanistan,AF
Lashkar Gah,31.5831,64.3692,Afghanistan,AF
Hukumati Baghran,33.0669,65.0917,Afghanistan,AF
Sangin,32.0733,64.8339,Afghanistan,AF
Deh-e Shu,30.4344,63.3183,Afghanistan,AF
Herat,34.3419,62.2031,Afghanistan,AF
Ghoriyan,34.3400,61.4700,Afghanistan,AF
Karukh,34.4922,62.5922,Afghanistan,AF
Kushk,33.2956,61.9522,Afghanistan,AF
Islam Qal`ah,34.6667,61.0667,Afghanistan,AF
Kuhsan,34.6500,61.1667,Afghanistan,AF
Shibirghan,36.6650,65.7520,Afghanistan,AF
Aqchah,36.9114,66.1858,Afghanistan,AF
Qarqin,37.4128,66.0472,Afghanistan,AF
Kabul,34.5253,69.1783,Afghanistan,AF
Paghman,34.5833,68.9500,Afghanistan,AF
Gudarah,34.8169,69.0878,Afghanistan,AF
Bagrami,34.4911,69.2756,Afghanistan,AF
Kandahar,31.6200,65.7158,Afghanistan,AF
Mahmud-e Raqi,35.0206,69.3306,Afghanistan,AF
Khost,33.3331,69.9169,Afghanistan,AF
Asadabad,34.8742,71.1528,Afghanistan,AF
Kunduz,36.7286,68.8681,Afghanistan,AF
Khanabad,36.6831,69.1636,Afghanistan,AF
Qal`ah-ye Zal,37.0150,68.4672,Afghanistan,AF
Imam Sahib,37.1844,68.9144,Afghanistan,AF
Chichkah,37.0706,69.2983,Afghanistan,AF
Mehtar Lam,34.6683,70.2089,Afghanistan,AF
Pul-e `Alam,33.9808,69.0350,Afghanistan,AF
Baraki Barak,33.9692,68.9447,Afghanistan,AF
Baraki,33.9333,68.9167,Afghanistan,AF
Jalalabad,34.4342,70.4478,Afghanistan,AF
Haskah Menah,34.1000,70.4667,Afghanistan,AF
Mama Khel,34.2500,70.0100,Afghanistan,AF
Zaranj,30.9600,61.8600,Afghanistan,AF
Parun,35.4167,70.9169,Afghanistan,AF
Zarah Sharan,33.1300,68.7800,Afghanistan,AF
Zarghun Shahr,32.8500,68.4167,Afghanistan,AF
Sharan,33.1757,68.7304,Afghanistan,AF
Gardez,33.6000,69.2169,Afghanistan,AF
Bazarak,35.3128,69.5158,Afghanistan,AF
Charikar,35.0131,69.1689,Afghanistan,AF
Aibak,36.2653,68.0167,Afghanistan,AF
Sar-e Pul,36.2214,65.9278,Afghanistan,AF
Taluqan,36.7167,69.5167,Afghanistan,AF
Tarin Kot,32.6267,65.8733,Afghanistan,AF
Kotah-ye `Ashro,34.4492,68.7939,Afghanistan,AF
Maidan Shahr,34.3972,68.8697,Afghanistan,AF
Qalat,32.1061,66.9069,Afghanistan,AF
Berat,40.7022,19.9583,Albania,AL
Kucove,40.8039,19.9144,Albania,AL
Perondi,40.7833,19.9333,Albania,AL
Corovode,40.5000,20.2167,Albania,AL
Peshkopi,41.6833,20.4281,Albania,AL
Burrel,41.6083,20.0111,Albania,AL
Durres,41.3133,19.4458,Albania,AL
Fushe-Kruje,41.4833,19.7167,Albania,AL
Sukth,41.3833,19.5333,Albania,AL
Kruje,41.5108,19.7925,Albania,AL
Elbasan,41.1111,20.0806,Albania,AL
Librazhd-Qender,41.1969,20.3356,Albania,AL
Belsh,40.9833,19.8833,Albania,AL
Gramsh,40.8667,20.1833,Albania,AL
Librazhd,41.1833,20.3167,Albania,AL
Fier,40.7250,19.5572,Albania,AL
Lushnje,40.9333,19.7000,Albania,AL
Patos,40.6833,19.6167,Albania,AL
Gjirokaster,40.0667,20.1333,Albania,AL
Permet,40.2333,20.3500,Albania,AL
Tepelene,40.2967,20.0189,Albania,AL
Korce,40.6167,20.7667,Albania,AL
Pogradec,40.9000,20.6500,Albania,AL
Bucimas,40.8917,20.6806,Albania,AL
Libonik,40.7500,20.7167,Albania,AL
Erseke,40.3333,20.6833,Albania,AL
Kukes,42.0833,20.4167,Albania,AL
Bajram Curri,42.3583,20.0761,Albania,AL
Lac,41.6353,19.7131,Albania,AL
Lezhe,41.7819,19.6444,Albania,AL
Rreshen,41.7667,19.8833,Albania,AL
Shkoder,42.0681,19.5119,Albania,AL
Puke,42.0500,19.9000,Albania,AL
Tirana,41.3289,19.8178,Albania,AL
Kamez,41.3833,19.7667,Albania,AL
Kavaje,41.1842,19.5619,Albania,AL
Vlore,40.4667,19.4833,Albania,AL
Sarande,39.8750,20.0100,Albania,AL
Adrar,27.8667,-0.2833,Algeria,DZ
Reggane,26.7203,0.1728,Algeria,DZ
Timoktene,27.0217,1.0150,Algeria,DZ
Tsabit,28.3503,-0.2208,Algeria,DZ
Sali,25.9606,-0.0275,Algeria,DZ
Fenoughil,27.6028,-0.3056,Algeria,DZ
Aougrout,28.7000,0.3167,Algeria,DZ
Charouine,29.0186,-0.2578,Algeria,DZ
Tamentit,27.7672,-0.2678,Algeria,DZ
Khemis Miliana,36.2667,2.2167,Algeria,DZ
Ain Defla,36.2652,1.9703,Algeria,DZ
El Attaf,36.2167,1.6667,Algeria,DZ
Miliana,36.3000,2.2333,Algeria,DZ
Djendel,36.2186,2.4089,Algeria,DZ
Sidi Lakhdar,36.2653,2.1617,Algeria,DZ
Theniet el Had,35.8708,2.0289,Algeria,DZ
El Abadia,36.2667,1.6833,Algeria,DZ
Ouamri,36.2333,2.5667,Algeria,DZ
Ain Lechiakh,36.1569,2.4042,Algeria,DZ
Ain Temouchent,35.3000,-1.1333,Algeria,DZ
Beni Saf,35.3000,-1.3833,Algeria,DZ
Hammam Bou Hadjar,35.3792,-0.9706,Algeria,DZ
El Amria,35.5333,-1.0167,Algeria,DZ
El Malah,35.3883,-1.0944,Algeria,DZ
'Ain el Arbaa,35.4075,-0.8817,Algeria,DZ
Chaabat el Leham,35.3361,-1.1011,Algeria,DZ
Sidi Ben Adda,35.3000,-1.1833,Algeria,DZ
'Ain Tolba,35.2483,-1.2489,Algeria,DZ
Hassi el Ghella,35.4500,-1.0500,Algeria,DZ
Oued Sebbah,35.3725,-0.8114,Algeria,DZ
Tamzoura,35.4167,-0.6500,Algeria,DZ
'Ain Kihal,35.2044,-1.1961,Algeria,DZ
Algiers,36.7539,3.0589,Algeria,DZ
Bordj el Kiffan,36.7375,3.1931,Algeria,DZ
Bab Ezzouar,36.7217,3.1853,Algeria,DZ
Dar el Beida,36.7142,3.2125,Algeria,DZ
Birkhadem,36.7167,3.0500,Algeria,DZ
Rouiba,36.7333,3.2833,Algeria,DZ
Ain Taya,36.7917,3.2889,Algeria,DZ
Bordj el Bahri,36.8167,3.2333,Algeria,DZ
El Marsa,36.8111,3.2556,Algeria,DZ
Annaba,36.9000,7.7667,Algeria,DZ
El Hadjar,36.8000,7.7333,Algeria,DZ
Oued el Aneb,36.8833,7.4833,Algeria,DZ
Nechmeya,36.6114,7.5133,Algeria,DZ
Batna,35.5500,6.1667,Algeria,DZ
Barika,35.3972,5.3658,Algeria,DZ
Merouana,35.6333,5.9167,Algeria,DZ
Ain Touta,35.3833,5.9000,Algeria,DZ
Arris,35.2500,6.3500,Algeria,DZ
N'Gaous,35.5550,5.6106,Algeria,DZ
Tazoult-Lambese,35.4900,6.2600,Algeria,DZ
Bouzina,35.2833,6.1167,Algeria,DZ
Teniet el Abed,35.2469,6.1906,Algeria,DZ
Ksar Belezma,35.6756,5.9033,Algeria,DZ
Bechar,31.6167,-2.2167,Algeria,DZ
Abadla,31.0167,-2.7333,Algeria,DZ
Kenadsa,31.5333,-2.4167,Algeria,DZ
Beni Ounif,32.0500,-1.2500,Algeria,DZ
Bejaia,36.7511,5.0642,Algeria,DZ
Akbou,36.4667,4.5333,Algeria,DZ
Kherrata,36.5000,5.2833,Algeria,DZ
El Kseur,36.6844,4.8522,Algeria,DZ
Barbacha,36.5667,4.9667,Algeria,DZ
Tizi-n-Bechar,36.4311,5.3600,Algeria,DZ
Tichi,36.6667,5.1667,Algeria,DZ
Adekar Kebouche,36.6833,4.6667,Algeria,DZ
Ziama Mansouria,36.6667,5.4833,Algeria,DZ
Toudja,36.7500,4.9000,Algeria,DZ
Seddouk Oufella,36.6061,4.6389,Algeria,DZ
Boukhralfa,36.6144,5.0872,Algeria,DZ
Amalou,36.4778,4.6333,Algeria,DZ
Tifra,36.6667,4.7000,Algeria,DZ
Beni Abbes,30.0800,-2.1000,Algeria,DZ
Biskra,34.8500,5.7333,Algeria,DZ
Sidi Khaled,34.3833,4.9833,Algeria,DZ
Sidi Okba,34.7500,5.9000,Algeria,DZ
Foughala,34.7167,5.3167,Algeria,DZ
Lioua,34.6375,5.3958,Algeria,DZ
Menaa,35.1667,6.0000,Algeria,DZ
Djemmorah,35.0667,5.8333,Algeria,DZ
Bouchagroun,34.7217,5.4656,Algeria,DZ
M'Chouneche,34.9500,6.0000,Algeria,DZ
'Ain Naga,34.6883,6.0886,Algeria,DZ
El Outaya,35.0333,5.6000,Algeria,DZ
Lichana,34.7247,5.4325,Algeria,DZ
Chetma,34.8500,5.8167,Algeria,DZ
Blida,36.4686,2.8319,Algeria,DZ
Boufarik,36.5706,2.9108,Algeria,DZ
Oulad Yaich,36.5039,2.8619,Algeria,DZ
Meftah,36.6167,3.2333,Algeria,DZ
Sidi Moussa,36.6056,3.0886,Algeria,DZ
Bougara,36.5333,3.0833,Algeria,DZ
Souma,36.5183,2.9053,Algeria,DZ
Beni Tamou,36.5333,2.8167,Algeria,DZ
Ouled Slama Tahta,36.5483,3.1100,Algeria,DZ
Chebli,36.5778,3.0083,Algeria,DZ
Beni Mered,36.5233,2.8617,Algeria,DZ
Ouled Chebel,36.6000,3.0000,Algeria,DZ
Bordj Mokhtar,21.3289,0.9542,Algeria,DZ
Bordj Bou Arreridj,36.0667,4.7667,Algeria,DZ
Ras el Oued,35.9497,5.0358,Algeria,DZ
Khelil,36.1756,5.0292,Algeria,DZ
Bordj Ghdir,35.9000,4.8900,Algeria,DZ
Mansourah,36.0819,4.4600,Algeria,DZ
El Hammadia,35.9833,4.7500,Algeria,DZ
Bir Kasdali,36.1500,5.0333,Algeria,DZ
El Achir,36.0667,4.6333,Algeria,DZ
Medjana,36.1333,4.6667,Algeria,DZ
El Ach,35.9500,4.6833,Algeria,DZ
Melouza,35.9808,4.1861,Algeria,DZ
Galbois,36.2000,4.4900,Algeria,DZ
'Ain Taghrout,36.1289,5.0767,Algeria,DZ
Rabta,35.9167,4.7500,Algeria,DZ
Bel Imour,35.9806,4.8797,Algeria,DZ
Bordj Zemoura,36.2667,4.8500,Algeria,DZ
Sidi Embarek,36.1039,4.9119,Algeria,DZ
Tixter,36.0500,5.0833,Algeria,DZ
Tassera,36.0369,5.0022,Algeria,DZ
Bouira,36.3800,3.9014,Algeria,DZ
Lakhdaria,36.5622,3.5944,Algeria,DZ
Sour el Ghozlane,36.1472,3.6906,Algeria,DZ
Draa el Mizan,36.5333,3.8333,Algeria,DZ
Ain Bessem,36.2967,3.6700,Algeria,DZ
Tazmalt,36.3844,4.3992,Algeria,DZ
Kadiria,36.5333,3.6833,Algeria,DZ
M'Chedallah,36.3667,4.2667,Algeria,DZ
Aomar,36.5000,3.7667,Algeria,DZ
Chorfa,36.3617,4.3308,Algeria,DZ
Guerouma,36.4833,3.4333,Algeria,DZ
Djebahia,36.4764,3.7578,Algeria,DZ
Ouled Sidi Brahim,36.3667,3.7167,Algeria,DZ
Takerbouzt,36.4180,4.3428,Algeria,DZ
El Hachimia,36.2333,3.8333,Algeria,DZ
El Adjiba,36.3333,4.1500,Algeria,DZ
Bechloul,36.3167,4.0667,Algeria,DZ
Bordj Okhriss,36.0833,3.9667,Algeria,DZ
Ouled Rached,36.2119,4.1106,Algeria,DZ
Ain el Hadjar,36.3333,3.8000,Algeria,DZ
Khemis el Khechna,36.6500,3.3306,Algeria,DZ
Reghaia,36.7631,3.3426,Algeria,DZ
Bordj Menaiel,36.7417,3.7231,Algeria,DZ
Boudouaou,36.7300,3.4100,Algeria,DZ
Ouled Moussa,36.6831,3.3681,Algeria,DZ
Boumerdes,36.7603,3.4724,Algeria,DZ
Dellys,36.9133,3.9141,Algeria,DZ
Draa Ben Khedda,36.7333,3.9667,Algeria,DZ
Chabet el Ameur,36.6333,3.7000,Algeria,DZ
Tizi Gheniff,36.5833,3.7667,Algeria,DZ
Ouled Haddaj,36.7200,3.3500,Algeria,DZ
Isser,36.7160,3.6660,Algeria,DZ
Zemmouri,36.7833,3.6000,Algeria,DZ
Beni Amrane,36.6667,3.5833,Algeria,DZ
Makouda,36.7833,4.0667,Algeria,DZ
Tadmait,36.7500,3.9000,Algeria,DZ
Naciria,36.7500,3.8333,Algeria,DZ
Djinet,36.8833,3.7167,Algeria,DZ
Thenia,36.7278,3.5539,Algeria,DZ
Arbatache,36.6361,3.3708,Algeria,DZ
Sidi Daoud,36.8500,3.8500,Algeria,DZ
Baghlia,36.8167,3.8500,Algeria,DZ
Tidjelabine,36.7333,3.5000,Algeria,DZ
Afir,36.7676,3.7029,Algeria,DZ
Si Mustapha,36.7247,3.6153,Algeria,DZ
Sidi Namane,36.7581,3.9839,Algeria,DZ
Boudouaou el Bahri,36.7733,3.3872,Algeria,DZ
Ben N'Choud,36.8622,3.8806,Algeria,DZ
Chlef,36.1647,1.3317,Algeria,DZ
Boukadir,36.0667,1.1333,Algeria,DZ
Oued Sly,36.1000,1.2000,Algeria,DZ
Oued Fodda,36.1833,1.5333,Algeria,DZ
Tenes,36.5122,1.3044,Algeria,DZ
Ouled Fares,36.2667,1.1833,Algeria,DZ
Sendjas,36.0667,1.4000,Algeria,DZ
Ouled Ben Abd el Kader,36.0258,1.2764,Algeria,DZ
Taougrite,36.2500,0.9167,Algeria,DZ
Sidi Akkacha,36.4667,1.3000,Algeria,DZ
Zeboudja,36.3500,1.4333,Algeria,DZ
El Karimia,36.1167,1.5500,Algeria,DZ
Beni Rached,36.2806,1.5161,Algeria,DZ
Bouzeghaia,36.3333,1.2500,Algeria,DZ
Oum Drou,36.2000,1.3833,Algeria,DZ
Beni Haoua,36.5333,1.5667,Algeria,DZ
Abou el Hassan,36.4167,1.2000,Algeria,DZ
Sidi Merouane,36.5333,1.3333,Algeria,DZ
Herenfa,36.2453,1.0458,Algeria,DZ
Damous,36.5500,1.7000,Algeria,DZ
Harchoune,36.1139,1.5056,Algeria,DZ
Labiod Medjadja,36.2500,1.4000,Algeria,DZ
Benairia,36.3500,1.3833,Algeria,DZ
Ouled Abbes,36.2167,1.4833,Algeria,DZ
Constantine,36.3500,6.6000,Algeria,DZ
El Khroub,36.2667,6.7000,Algeria,DZ
Hamma Bouziane,36.5333,6.7167,Algeria,DZ
Didouche Mourad,36.4500,6.6333,Algeria,DZ
'Ain Abid,36.2325,6.9440,Algeria,DZ
Zighout Youcef,36.5333,6.7167,Algeria,DZ
Ouled Rahmoun,36.1803,6.7050,Algeria,DZ
Ebn Ziad,36.3833,6.4667,Algeria,DZ
Djanet,24.5550,9.4853,Algeria,DZ
Djelfa,34.6667,3.2500,Algeria,DZ
Messaad,34.1667,3.5000,Algeria,DZ
Ain Oussera,35.4489,2.9044,Algeria,DZ
Hassi Bahbah,35.0667,3.0333,Algeria,DZ
El Idrissia,34.4500,2.5333,Algeria,DZ
Feidh el Botma,34.5278,3.7819,Algeria,DZ
Birine,35.6333,3.2167,Algeria,DZ
Dar Chioukh,34.9000,3.4833,Algeria,DZ
Had Sahary,35.3517,3.3608,Algeria,DZ
'Ain el Bell,34.3500,3.2167,Algeria,DZ
'Ain Mabed,34.8000,3.1333,Algeria,DZ
Charef,34.6167,2.8000,Algeria,DZ
Ain Feka,35.4333,3.5833,Algeria,DZ
Moudjbara,34.5037,3.4704,Algeria,DZ
Selmana,34.1833,3.6000,Algeria,DZ
'Ain Mouilah,34.7500,3.4833,Algeria,DZ
Sidi Ladjel,35.4333,2.5000,Algeria,DZ
El Bayadh,33.6803,1.0203,Algeria,DZ
El Abiodh Sidi Cheikh,32.8986,0.5444,Algeria,DZ
Bougtob,34.0425,0.0892,Algeria,DZ
El Meghaier,33.9506,5.9242,Algeria,DZ
El Golea,30.5833,2.8833,Algeria,DZ
El Oued,33.3611,6.8606,Algeria,DZ
Reguiba,33.5667,6.7167,Algeria,DZ
Guemar,33.5000,6.8333,Algeria,DZ
Hassi Khelifa,33.5622,6.9903,Algeria,DZ
Debila,33.5064,6.9381,Algeria,DZ
Robbah,33.2811,6.9108,Algeria,DZ
Mouiat Ouennsa,33.1969,6.7053,Algeria,DZ
Tarhzout,33.4833,6.7500,Algeria,DZ
Nakhla,33.2833,6.9500,Algeria,DZ
Sidi Aoun,33.5422,6.9050,Algeria,DZ
Kouinine,33.4000,6.8333,Algeria,DZ
Tenedla,33.6753,6.0339,Algeria,DZ
El Tarf,36.7670,8.3170,Algeria,DZ
Bou Hadjar,36.5031,8.1053,Algeria,DZ
'Ain el Assel,36.7864,8.3825,Algeria,DZ
'Ain Kerma,36.5939,8.2011,Algeria,DZ
Asfour,36.6667,7.9833,Algeria,DZ
Zerizer,36.7272,7.8947,Algeria,DZ
Lac des Oiseaux,36.7833,8.1167,Algeria,DZ
Ghardaia,32.4833,3.6667,Algeria,DZ
Metlili Chaamba,32.2728,3.6275,Algeria,DZ
Bou Noura,32.4825,3.7036,Algeria,DZ
Berriane,32.8333,3.7667,Algeria,DZ
El Ateuf,32.4775,3.7478,Algeria,DZ
Zelfana,32.3969,4.2261,Algeria,DZ
Guelma,36.4500,7.4333,Algeria,DZ
Oued Zenati,36.3167,7.1667,Algeria,DZ
Hammam M'Bails,36.3258,7.6436,Algeria,DZ
Boumahra Ahmed,36.4500,7.5167,Algeria,DZ
Belkheir,36.4667,7.4833,Algeria,DZ
Bouchegouf,36.4667,7.4833,Algeria,DZ
Oued Cheham,36.3833,7.7667,Algeria,DZ
Bouati Mahmoud,36.5833,7.3333,Algeria,DZ
Illizi,26.5050,8.4822,Algeria,DZ
I-n-Amenas,28.0408,9.5431,Algeria,DZ
In Guezzam,19.5686,5.7722,Algeria,DZ
I-n-Salah,27.1950,2.4833,Algeria,DZ
Jijel,36.8167,5.7500,Algeria,DZ
El Milia,36.7500,6.2667,Algeria,DZ
Taher,36.7719,5.8983,Algeria,DZ
Emir Abdelkader,36.7500,5.8333,Algeria,DZ
Kaous,36.7702,5.8136,Algeria,DZ
Chekfa,36.7667,5.9667,Algeria,DZ
El Ancer,36.8000,6.1667,Algeria,DZ
Texenna,36.6500,5.7833,Algeria,DZ
Settara,36.7167,6.3333,Algeria,DZ
El Aouana,36.7667,5.6000,Algeria,DZ
Sidi Abdelaziz,36.8500,6.0500,Algeria,DZ
Chahana,36.6794,5.9572,Algeria,DZ
Khenchela,35.4167,7.1333,Algeria,DZ
Babar,35.1692,7.1013,Algeria,DZ
Dhalaa,35.4611,7.5472,Algeria,DZ
Bouhmama,35.2833,6.7333,Algeria,DZ
Tamza,35.3167,6.8333,Algeria,DZ
Laghouat,33.8028,2.8750,Algeria,DZ
Aflou,34.1089,2.1019,Algeria,DZ
Tadjmout,33.8667,2.5167,Algeria,DZ
Ksar el Hirane,33.7833,3.1500,Algeria,DZ
Gueltat Sidi Saad,34.3000,1.9500,Algeria,DZ
Sidi Makhlouf,34.1333,3.0167,Algeria,DZ
Sidi Aissa,36.5000,4.2978,Algeria,DZ
M'Sila,35.7019,4.5472,Algeria,DZ
Bou Saada,35.2083,4.1739,Algeria,DZ
'Ain el Melh,34.8483,4.1611,Algeria,DZ
Magra,35.6000,5.0667,Algeria,DZ
Hammam Dalaa,35.9281,4.3744,Algeria,DZ
Selmane,35.6833,4.7833,Algeria,DZ
`Ain el Hadjel,35.6739,3.8817,Algeria,DZ
Berhoum,35.6500,5.0333,Algeria,DZ
Mechta Ouled Oulha,35.6706,4.8778,Algeria,DZ
Medjedel,35.1500,3.6833,Algeria,DZ
El Hamel,35.1333,4.0833,Algeria,DZ
Tarmount,35.8167,4.2833,Algeria,DZ
Mascara,35.4000,0.1333,Algeria,DZ
Mohammadia,35.5833,0.0667,Algeria,DZ
Sig,35.5278,-0.1861,Algeria,DZ
Tighenif,35.4167,0.3333,Algeria,DZ
Ghriss,35.2500,0.1667,Algeria,DZ
Oued el Abtal,35.4500,0.6833,Algeria,DZ
Maoussa,35.3833,0.2500,Algeria,DZ
El Bordj,35.5158,0.3017,Algeria,DZ
Sidi Kada,35.3333,0.3500,Algeria,DZ
Bou Hanifia el Hamamat,35.3167,-0.0500,Algeria,DZ
Oued Taria,35.1167,0.0833,Algeria,DZ
Sidi Abd el Moumene,35.6528,0.0139,Algeria,DZ
Froha,35.3000,0.1333,Algeria,DZ
Tizi,35.3167,0.0667,Algeria,DZ
'Ain Fekan,35.2250,-0.0017,Algeria,DZ
Jean-Mermoz,35.5606,-0.0844,Algeria,DZ
Oggaz,35.5667,-0.2667,Algeria,DZ
Hacine,35.4569,-0.0025,Algeria,DZ
Medea,36.2675,2.7500,Algeria,DZ
Ksar el Boukhari,35.8856,2.7508,Algeria,DZ
Berrouaghia,36.1333,2.9167,Algeria,DZ
Beni Slimane,36.2270,3.3060,Algeria,DZ
Tablat,36.4167,3.3167,Algeria,DZ
Chellalat el Adhaouara,35.9403,3.4139,Algeria,DZ
'Ain Boucif,35.8912,3.1585,Algeria,DZ
El Omaria,36.2667,3.0333,Algeria,DZ
Djouab,36.1333,3.4333,Algeria,DZ
Souagui,36.1167,3.2333,Algeria,DZ
Oulad Dahmane,36.3667,3.4667,Algeria,DZ
Bougzoul,35.6997,2.8478,Algeria,DZ
Chahbounia,35.5500,2.6000,Algeria,DZ
Bouskene,36.1833,3.2333,Algeria,DZ
Ouzera,36.2500,2.8500,Algeria,DZ
Sidi Baizid,35.7500,2.3833,Algeria,DZ
Bir Ghbalou,36.2642,3.5836,Algeria,DZ
Bir Ben Laabed,36.2175,3.4267,Algeria,DZ
Ouled Rabah,36.2833,3.1333,Algeria,DZ
Ouled Brahim,36.2444,2.9336,Algeria,DZ
Zoubiria,36.0667,2.9000,Algeria,DZ
Ben Chicao,36.1997,2.8486,Algeria,DZ
Bouaiche,35.5528,2.3586,Algeria,DZ
Chelghoum el Aid,36.1667,6.1667,Algeria,DZ
Mila,36.4503,6.2644,Algeria,DZ
Telerghma,36.1167,6.3667,Algeria,DZ
Tadjenanet,36.1167,5.9833,Algeria,DZ
Oued Athmenia,36.2497,6.2861,Algeria,DZ
Rouached,36.4583,6.0397,Algeria,DZ
Ahmed Rachedi,36.4000,6.1167,Algeria,DZ
Debbache el Hadj Douadi,36.2750,6.1764,Algeria,DZ
Oued Seguin,36.1710,6.4200,Algeria,DZ
Benyahia Abderrahmane,36.2333,6.0167,Algeria,DZ
Mostaganem,35.9333,0.0833,Algeria,DZ
Ain Tedeles,35.9947,0.2956,Algeria,DZ
Sidi Lakhdar,36.1428,0.4606,Algeria,DZ
Sidi Ali,36.1047,0.4233,Algeria,DZ
Bouguirat,35.7508,0.2556,Algeria,DZ
Kheiredine,35.9806,0.1681,Algeria,DZ
Sayada,35.9500,0.1333,Algeria,DZ
Hassi Maameche,35.8611,0.7250,Algeria,DZ
Sirat,35.7800,0.1919,Algeria,DZ
Sour,36.0006,0.3414,Algeria,DZ
Mesra,35.8333,0.1667,Algeria,DZ
Fornaka,35.7517,-0.0161,Algeria,DZ
Oued el Kheir,35.9503,0.3808,Algeria,DZ
Souaflia,35.8500,0.3333,Algeria,DZ
Hadjadj,36.1000,0.3333,Algeria,DZ
Mazagran,35.9019,0.7269,Algeria,DZ
Ain Nouissy,35.8000,0.0500,Algeria,DZ
Khadra,36.2500,0.5667,Algeria,DZ
Stidia,35.8333,-0.3000,Algeria,DZ
Ouled Rahou,36.0069,0.5919,Algeria,DZ
El Ghomri,35.6833,0.2000,Algeria,DZ
Mecheria,33.5500,-0.2833,Algeria,DZ
Ain Sefra,32.7500,-0.5833,Algeria,DZ
Naama,33.2622,-0.3144,Algeria,DZ
Bir el Djir,35.7367,-0.5542,Algeria,DZ
Oran,35.6969,-0.6331,Algeria,DZ
Es Senia,35.6500,-0.6333,Algeria,DZ
Arzew,35.8500,-0.3167,Algeria,DZ
Assi Bou Nif,35.7000,-0.5000,Algeria,DZ
Sidi ech Chahmi,35.6667,-0.5167,Algeria,DZ
'Ain el Turk,35.7408,-0.7492,Algeria,DZ
Ain el Bya,35.8167,-0.2833,Algeria,DZ
Misserghin,35.6167,-0.7333,Algeria,DZ
Douar Bou Tlelis,35.5730,-0.9000,Algeria,DZ
Zahana,35.5167,-0.4167,Algeria,DZ
Bettioua,35.8000,-0.2667,Algeria,DZ
Mers el Kebir,35.7286,-0.7069,Algeria,DZ
Benfreha,35.6933,-0.4192,Algeria,DZ
Mers el Hadjad,35.7833,-0.1667,Algeria,DZ
El Kerma,35.6167,-0.5667,Algeria,DZ
Bou Sfer,35.7108,-0.8106,Algeria,DZ
Oued Tlelat,35.5500,-0.4500,Algeria,DZ
Tafaraoui,35.4833,-0.5167,Algeria,DZ
El Ancor,35.6833,-0.8667,Algeria,DZ
Boufatis,35.6833,-0.4167,Algeria,DZ
Assi-Ben Okba,35.7294,-0.4658,Algeria,DZ
Ouargla,31.9500,5.3167,Algeria,DZ
Rouissat,31.9167,5.3500,Algeria,DZ
Djamaa,33.5333,6.0000,Algeria,DZ
Hassi Messaoud,31.7000,6.0667,Algeria,DZ
Tebesbest,33.1167,6.0833,Algeria,DZ
Sidi Amrane,33.5000,6.0167,Algeria,DZ
Taibet,33.0833,6.3833,Algeria,DZ
Temacine,33.0219,6.0228,Algeria,DZ
N'Goussa,32.1408,5.3083,Algeria,DZ
El Hadjira,32.6167,5.5167,Algeria,DZ
Blidet Amor,32.9514,5.9806,Algeria,DZ
Mnagueur,33.1264,6.3519,Algeria,DZ
Megarine,33.1944,6.0944,Algeria,DZ
Ben Nasseur,33.1108,6.4411,Algeria,DZ
Ouled Djellal,34.4167,5.0667,Algeria,DZ
Ain Beida,35.7833,7.3833,Algeria,DZ
Ain M'Lila,36.0361,6.5708,Algeria,DZ
Oum el Bouaghi,35.8775,7.1136,Algeria,DZ
Meskiana,35.6333,7.6667,Algeria,DZ
Ain Fakroun,35.9667,6.8667,Algeria,DZ
Ain Kercha,35.9167,6.7000,Algeria,DZ
Sigus,36.1167,6.7833,Algeria,DZ
Berriche,35.9167,7.3833,Algeria,DZ
'Ain Babouche,35.9411,7.1856,Algeria,DZ
Ksar Sbahi,36.0833,7.2500,Algeria,DZ
Relizane,35.7333,0.5500,Algeria,DZ
Oued Rhiou,35.9667,0.9167,Algeria,DZ
'Ain Merane,36.1628,0.9706,Algeria,DZ
Zemoura,35.7167,0.7500,Algeria,DZ
Ammi Moussa,35.8667,1.1167,Algeria,DZ
Oued el Djemaa,35.7972,0.6814,Algeria,DZ
Ben Daoud,35.7192,0.5203,Algeria,DZ
Oued Essalem,35.5833,0.9167,Algeria,DZ
Saida,34.8333,0.1500,Algeria,DZ
Setif,36.1900,5.4100,Algeria,DZ
El Eulma,36.1500,5.6833,Algeria,DZ
Ain Oulmene,35.9167,5.3000,Algeria,DZ
'Ain Azel,35.8433,5.5219,Algeria,DZ
'Ain Arnat,36.1833,5.3167,Algeria,DZ
Bougaa,36.3333,5.0833,Algeria,DZ
Amoucha,36.3833,5.4167,Algeria,DZ
Tala Yfassene,36.4583,5.0889,Algeria,DZ
Arbaoun,36.4667,5.6500,Algeria,DZ
Beni Fouda,36.2861,5.6072,Algeria,DZ
'Ain Abessa,36.3000,5.2950,Algeria,DZ
Bellaa,36.2000,5.8500,Algeria,DZ
'Ain Roua,36.3344,5.1806,Algeria,DZ
Sidi Bel Abbes,35.1939,-0.6414,Algeria,DZ
Sfizef,35.2333,-0.2500,Algeria,DZ
Telagh,34.7833,-0.5667,Algeria,DZ
Sidi Lahssen,35.1633,-0.6958,Algeria,DZ
Sidi Brahim,35.2606,-0.5675,Algeria,DZ
Skikda,36.8667,6.9000,Algeria,DZ
Azzaba,36.7333,7.1000,Algeria,DZ
Tamalous,36.8361,6.6417,Algeria,DZ
Collo,37.0056,6.5603,Algeria,DZ
El Arrouch,36.6531,6.8364,Algeria,DZ
Ain Kechera,36.7483,6.4325,Algeria,DZ
Es Sebt,36.6624,7.0774,Algeria,DZ
Souk Ahras,36.2864,7.9511,Algeria,DZ
Tamanrasset,22.7889,5.5256,Algeria,DZ
Abalessa,22.8900,4.8472,Algeria,DZ
I-n-Amguel,23.6936,5.1647,Algeria,DZ
Tebessa,35.4000,8.1167,Algeria,DZ
Bir el Ater,34.7497,8.0578,Algeria,DZ
Cheria,35.2667,7.7500,Algeria,DZ
Morsott,35.6667,8.0167,Algeria,DZ
Ouenza,35.9500,8.1333,Algeria,DZ
El Kouif,35.5000,8.3167,Algeria,DZ
Bou Khadra,35.7444,8.0325,Algeria,DZ
Bekkaria,35.3722,8.2422,Algeria,DZ
Negrine,34.4833,7.5167,Algeria,DZ
Tiaret,35.3667,1.3167,Algeria,DZ
Sougueur,35.1833,1.5000,Algeria,DZ
Frenda,35.0667,1.0500,Algeria,DZ
Ksar Chellala,35.2167,2.3167,Algeria,DZ
Takhemaret,35.1072,0.6833,Algeria,DZ
Rechaiga,35.4081,1.9733,Algeria,DZ
Mecheraa Asfa,35.3839,1.0533,Algeria,DZ
Ain el Hadid,35.0581,0.8833,Algeria,DZ
Medrissa,34.9000,1.2333,Algeria,DZ
Hassi Fedoul,35.4333,2.2167,Algeria,DZ
Timimoun,29.2628,-0.2389,Algeria,DZ
Tindouf,27.6753,-8.1286,Algeria,DZ
Baraki,36.6667,3.1000,Algeria,DZ
Hadjout,36.5167,2.4167,Algeria,DZ
Kolea,36.6406,2.7650,Algeria,DZ
Baba Hassen,36.7000,2.9667,Algeria,DZ
Zeralda,36.7167,2.8500,Algeria,DZ
Saoula,36.7000,3.0167,Algeria,DZ
Fouka,36.6667,2.7500,Algeria,DZ
Douera,36.6667,2.9500,Algeria,DZ
El Affroun,36.4667,2.6333,Algeria,DZ
Staoueli,36.7500,2.8833,Algeria,DZ
Ouled Beni Messous,36.7833,2.9833,Algeria,DZ
Cherchell,36.6075,2.1900,Algeria,DZ
Oued el Alleug,36.5500,2.7833,Algeria,DZ
Birtouta,36.6500,3.0000,Algeria,DZ
Ahmer el 'Ain,36.4781,2.5639,Algeria,DZ
Mouzaia,36.4667,2.6833,Algeria,DZ
Ouled Fayet,36.7333,2.9500,Algeria,DZ
Menaceur,36.4920,2.2208,Algeria,DZ
Tipasa,36.5919,2.4494,Algeria,DZ
Bourkika,36.5000,2.4833,Algeria,DZ
Merad,36.4667,2.4333,Algeria,DZ
Ben 'Aknoun,36.7500,3.0000,Algeria,DZ
Sidi Ghiles,36.5833,2.1167,Algeria,DZ
Tissemsilt,35.6078,1.8111,Algeria,DZ
Bordj Bounaama,35.8500,1.6167,Algeria,DZ
Tizi Ouzou,36.7167,4.0500,Algeria,DZ
Bou Saada,36.7667,4.5833,Algeria,DZ
Azazga,36.7453,4.3711,Algeria,DZ
Boghni,36.5500,3.9500,Algeria,DZ
L'Arbaa Nait Irathen,36.6367,4.2067,Algeria,DZ
Timizart,36.8000,4.2667,Algeria,DZ
Mekla,36.6833,4.2667,Algeria,DZ
Freha,36.7500,4.3167,Algeria,DZ
Beni Douala,36.6167,4.0833,Algeria,DZ
'Ain el Hammam,36.5714,4.3097,Algeria,DZ
Tirmitine,36.6618,3.9848,Algeria,DZ
Ain Zaouia,36.5500,3.8944,Algeria,DZ
Tizi Rached,36.6667,4.1833,Algeria,DZ
Ighram,36.4667,4.5167,Algeria,DZ
Azeffoun,36.9000,4.4167,Algeria,DZ
Ouadhia,36.5500,4.0833,Algeria,DZ
Boudjima,36.8000,4.1500,Algeria,DZ
Tizi-n-Tleta,36.5457,4.0571,Algeria,DZ
Chemini,36.6000,4.6167,Algeria,DZ
Ait Yaich,36.5811,4.3303,Algeria,DZ
Iflissen,36.8636,4.2203,Algeria,DZ
Mechtras,36.5500,4.0000,Algeria,DZ
Arhribs,36.8022,4.3228,Algeria,DZ
Iferhounene,36.5167,4.3833,Algeria,DZ
Yakouren,36.7333,4.4500,Algeria,DZ
Tigzirt,36.9000,4.1167,Algeria,DZ
Souama,36.6417,4.3417,Algeria,DZ
Bou Nouh,36.5000,3.9333,Algeria,DZ
Ifigha,36.6667,4.4167,Algeria,DZ
Tlemcen,34.8828,-1.3167,Algeria,DZ
Maghnia,34.8617,-1.7306,Algeria,DZ
Chetouane,34.9203,-1.2897,Algeria,DZ
Sebdou,34.6333,-1.3333,Algeria,DZ
Ghazaouet,35.1000,-1.8500,Algeria,DZ
Nedroma,35.0000,-1.7333,Algeria,DZ
Remchi,35.0667,-1.4333,Algeria,DZ
Sabra,34.8333,-1.5333,Algeria,DZ
Hennaya,34.9500,-1.3667,Algeria,DZ
Ouled Mimoun,34.9000,-1.0333,Algeria,DZ
Souahlia,35.0333,-1.8833,Algeria,DZ
Ain Youcef,35.0500,-1.3667,Algeria,DZ
Bensekrane,35.0667,-1.2167,Algeria,DZ
'Ain Tellout,34.9167,-0.9667,Algeria,DZ
Touggourt,33.1000,6.0667,Algeria,DZ
Pago Pago,-14.2740,-170.7046,American Samoa,AS
Andorra la Vella,42.5000,1.5000,Andorra,AD
Canillo,42.5667,1.6000,Andorra,AD
Encamp,42.5361,1.5828,Andorra,AD
Escaldes-Engordany,42.5089,1.5408,Andorra,AD
La Massana,42.5444,1.5144,Andorra,AD
Ordino,42.5550,1.5331,Andorra,AD
Sant Julia de Loria,42.4650,1.4911,Andorra,AD
Barra do Dande,-8.4728,13.3731,Angola,AO
Caxito,-8.5800,13.6642,Angola,AO
Nambuangongo,-8.0167,14.2000,Angola,AO
Ambriz,-7.8500,13.1167,Angola,AO
Lucala,-9.6333,14.0667,Angola,AO
Quibaxi,-8.5000,14.5833,Angola,AO
Benguela,-12.5500,13.4167,Angola,AO
Lobito,-12.3667,13.5333,Angola,AO
Cubal,-13.0333,14.2500,Angola,AO
Ganda,-13.0167,14.6333,Angola,AO
Catumbela,-12.4339,13.5433,Angola,AO
Bocoio,-12.4500,14.1500,Angola,AO
Balombo,-12.3500,14.7667,Angola,AO
Baia Farta,-12.6072,13.1944,Angola,AO
Caimbambo,-12.9000,14.0833,Angola,AO
Chongoroi,-13.5667,13.9500,Angola,AO
Cuito,-12.3833,16.9333,Angola,AO
Camacupa,-12.0256,17.4686,Angola,AO
Chinguar,-12.5500,16.3333,Angola,AO
Catabola,-12.1167,17.3000,Angola,AO
Chitembo,-13.5167,16.7667,Angola,AO
Chitemo,-13.4872,17.1919,Angola,AO
Cunhinga,-12.2333,16.7833,Angola,AO
Cuemba,-12.1500,18.0833,Angola,AO
Calenga,-11.3196,16.2000,Angola,AO
Cabinda,-5.5600,12.1900,Angola,AO
Cacongo,-5.2333,12.1333,Angola,AO
Buco Zau,-4.9500,12.6167,Angola,AO
Menongue,-14.6556,17.6842,Angola,AO
Cuchi,-14.6500,16.9000,Angola,AO
Cuito Cuanavale,-15.1667,19.1667,Angola,AO
Cazanga,-9.3000,14.9500,Angola,AO
Ndalatando,-9.3000,14.9167,Angola,AO
Cambambe,-9.7586,14.5122,Angola,AO
Dondo,-9.6942,14.4228,Angola,AO
Camabatela,-8.1833,15.3667,Angola,AO
Cacuso,-8.2333,15.3500,Angola,AO
Golungo Alto,-9.1333,14.7667,Angola,AO
Bolongongo,-8.4667,15.2500,Angola,AO
Banga,-8.7333,15.1667,Angola,AO
Quiculungo,-8.5167,15.3167,Angola,AO
Sumbe,-11.2053,13.8417,Angola,AO
Gabela,-10.8500,14.3667,Angola,AO
Uacu Cungo,-11.3583,15.1194,Angola,AO
Ucu Seles,-11.4047,14.3006,Angola,AO
Ebo,-11.0000,14.6667,Angola,AO
Quibala,-10.7333,14.9833,Angola,AO
Porto Amboim,-10.7183,13.7500,Angola,AO
Cassongue,-11.8333,15.0000,Angola,AO
Quilenda,-10.6333,14.3333,Angola,AO
Conda,-11.1667,14.5000,Angola,AO
Sungo,-11.2333,14.3167,Angola,AO
Calulo,-10.0007,14.9010,Angola,AO
Massango,-11.3167,14.9333,Angola,AO
Namacunde,-17.3000,15.8500,Angola,AO
Ondjiva,-17.0667,15.7333,Angola,AO
Xangongo,-16.7467,14.9747,Angola,AO
Cahama,-16.2833,14.3167,Angola,AO
Cuvelai,-15.6667,15.8000,Angola,AO
Tchitado,-17.3167,13.9167,Angola,AO
Huambo,-12.7767,15.7347,Angola,AO
Vila Teixeira da Silva,-12.1958,15.8556,Angola,AO
Ndulo,-11.4833,15.8333,Angola,AO
Londuimbali,-12.2419,15.3133,Angola,AO
Catchiungo,-12.5667,16.2333,Angola,AO
Mungo,-11.6667,16.1667,Angola,AO
Longonjo,-12.9067,15.1864,Angola,AO
Ucuma,-12.8500,15.0667,Angola,AO
Tchindjendje,-12.8167,14.9333,Angola,AO
Lubango,-14.9167,13.5000,Angola,AO
Chibia,-15.1833,13.7000,Angola,AO
Caluquembe,-13.7833,14.6833,Angola,AO
Caluquembe,-13.9208,14.5347,Angola,AO
Catape,-13.7667,15.0833,Angola,AO
Quipungo,-14.8167,14.5500,Angola,AO
Chicomba,-14.1333,14.9167,Angola,AO
Quilengues,-14.0814,14.0931,Angola,AO
Ndjamba,-14.7000,16.0667,Angola,AO
Humpata,-15.0000,13.3333,Angola,AO
Kuvango,-14.4667,16.3000,Angola,AO
Chipindo,-13.8244,15.8000,Angola,AO
Chibemba,-15.7355,13.8905,Angola,AO
Luanda,-8.8383,13.2344,Angola,AO
Cacuaco,-8.8053,13.2444,Angola,AO
Cazenga,-8.8214,13.2911,Angola,AO
Belas,-8.9983,13.2650,Angola,AO
Talatona,-8.9167,13.1833,Angola,AO
Tchitato,-7.3667,20.8333,Angola,AO
Cuango,-9.1444,18.0464,Angola,AO
Dundo,-7.3801,20.8351,Angola,AO
Lucapa,-8.4228,20.7392,Angola,AO
Calandala,-9.0667,17.9000,Angola,AO
Xa Muteba,-9.5167,17.8167,Angola,AO
Capenda Camulemba,-9.4233,18.4328,Angola,AO
Cuilo,-8.2371,19.5238,Angola,AO
Lubalo,-9.1500,19.2833,Angola,AO
Saurimo,-9.6500,20.4000,Angola,AO
Muconda,-10.6000,21.3167,Angola,AO
Cacolo,-10.1333,19.2667,Angola,AO
Dala,-11.0342,20.2036,Angola,AO
Alto-Cuilo,-10.0500,19.5167,Angola,AO
Malanje,-9.5333,16.3500,Angola,AO
Luquembo,-10.7333,17.8833,Angola,AO
Cambundi Catembo,-10.0756,17.5569,Angola,AO
Cangandala,-9.7833,16.4333,Angola,AO
Mucari,-9.4667,16.9167,Angola,AO
Marimba,-8.3667,17.0167,Angola,AO
Samba Cango,-9.1000,15.5500,Angola,AO
Caombo,-8.7000,16.5167,Angola,AO
Quirima,-10.9000,18.0833,Angola,AO
Quela,-9.3833,17.0500,Angola,AO
Cunda dia Baze,-8.9167,17.0667,Angola,AO
Luena,-11.7918,19.9062,Angola,AO
Luau,-10.7044,22.2283,Angola,AO
Luacano,-11.2167,21.6500,Angola,AO
Bala Cangamba,-13.6833,19.8667,Angola,AO
Cazombo,-11.9058,22.9217,Angola,AO
Mocamedes,-15.1953,12.1508,Angola,AO
PortoAlexandre,-15.8000,11.8500,Angola,AO
Virei,-15.7167,12.9500,Angola,AO
Bibala,-14.7667,13.3500,Angola,AO
Uige,-7.6167,15.0500,Angola,AO
Maquela do Zombo,-6.0500,15.1167,Angola,AO
Negage,-7.7667,15.2667,Angola,AO
Quimbele,-6.5167,16.2167,Angola,AO
Sanza Pombo,-7.3333,16.0000,Angola,AO
Damba,-6.8833,15.0167,Angola,AO
Nova Esperanca,-6.7333,15.9000,Angola,AO
Cangola,-7.9667,15.8667,Angola,AO
Mucaba,-7.1667,14.9333,Angola,AO
Puri,-7.6833,15.6000,Angola,AO
Quilevo,-7.6167,15.0500,Angola,AO
Bembe,-7.1000,14.4500,Angola,AO
Ambiula,-7.4333,14.6500,Angola,AO
Songo,-7.3496,14.8500,Angola,AO
Soio,-6.1333,12.3667,Angola,AO
Mbanza Kongo,-6.2678,14.2481,Angola,AO
Cuimba,-6.1178,14.6172,Angola,AO
Tomboco,-6.8000,13.3000,Angola,AO
Noqui,-5.8681,13.4325,Angola,AO
Quimavango,-7.6200,13.0300,Angola,AO
Nzeto,-7.2333,12.8667,Angola,AO
The Valley,18.2208,-63.0517,Anguilla,AI
Saint John's,17.1167,-61.8500,Antigua and Barbuda,AG
Mar del Plata,-38.0000,-57.5500,Argentina,AR
Lanus,-34.7000,-58.4000,Argentina,AR
Bahia Blanca,-38.7167,-62.2667,Argentina,AR
Pilar,-34.4500,-58.9167,Argentina,AR
Quilmes,-34.7167,-58.2667,Argentina,AR
Merlo,-34.6653,-58.7275,Argentina,AR
Gonzalez Catan,-34.7667,-58.6167,Argentina,AR
Banfield,-34.7500,-58.3833,Argentina,AR
Jose C. Paz,-34.5167,-58.7667,Argentina,AR
La Plata,-34.9211,-57.9544,Argentina,AR
Isidro Casanova,-34.7000,-58.5833,Argentina,AR
Berazategui,-34.7167,-58.2500,Argentina,AR
San Fernando,-34.4500,-58.5667,Argentina,AR
Jose Maria Ezeiza,-34.8333,-58.5167,Argentina,AR
San Nicolas de los Arroyos,-33.3333,-60.2167,Argentina,AR
San Miguel,-34.5333,-58.7167,Argentina,AR
Rafael Castillo,-34.7167,-58.6167,Argentina,AR
Florencio Varela,-34.8167,-58.2833,Argentina,AR
San Justo,-34.6833,-58.5500,Argentina,AR
Ituzaingo,-34.6667,-58.6667,Argentina,AR
Temperley,-34.7667,-58.3833,Argentina,AR
Ramos Mejia,-34.6500,-58.5667,Argentina,AR
Lomas de Zamora,-34.7667,-58.4000,Argentina,AR
Bernal,-34.7000,-58.2833,Argentina,AR
Esteban Echeverria,-34.8167,-58.4667,Argentina,AR
Castelar,-34.6667,-58.6667,Argentina,AR
Lujan,-34.5667,-59.1000,Argentina,AR
Pergamino,-33.8833,-60.5667,Argentina,AR
Libertad,-34.6833,-58.6833,Argentina,AR
Moron,-34.6500,-58.6167,Argentina,AR
Burzaco,-34.8167,-58.3667,Argentina,AR
Zarate,-34.0833,-59.0333,Argentina,AR
Caseros,-34.6106,-58.5625,Argentina,AR
Villa Luzuriaga,-34.6595,-58.5833,Argentina,AR
Ciudad General Belgrano,-34.7167,-58.5333,Argentina,AR
San Francisco Solano,-34.7667,-58.3167,Argentina,AR
Necochea,-38.5500,-58.7333,Argentina,AR
Olavarria,-36.9000,-60.3333,Argentina,AR
Berisso,-34.8728,-57.8858,Argentina,AR
Campana,-34.1667,-58.9167,Argentina,AR
Junin,-34.5833,-60.9500,Argentina,AR
General Rodriguez,-34.6167,-58.9500,Argentina,AR
Grand Bourg,-34.4833,-58.7167,Argentina,AR
Monte Chingolo,-34.7333,-58.3500,Argentina,AR
Remedios de Escalada,-34.7167,-58.4000,Argentina,AR
Ezpeleta,-34.7517,-58.2344,Argentina,AR
San Pedro,-33.6792,-59.6669,Argentina,AR
Ciudadela,-34.6333,-58.5333,Argentina,AR
Bella Vista,-34.5333,-58.6667,Argentina,AR
Lomas del Mirador,-34.6667,-58.5297,Argentina,AR
Wilde,-34.7000,-58.3167,Argentina,AR
Martinez,-34.4833,-58.5000,Argentina,AR
Don Torcuato,-34.5000,-58.6167,Argentina,AR
Gerli,-34.6833,-58.3667,Argentina,AR
Mercedes,-34.6500,-59.4333,Argentina,AR
Villa Dominico,-34.6917,-58.3333,Argentina,AR
Los Polvorines,-34.5000,-58.7000,Argentina,AR
Sarandi,-34.6833,-58.3333,Argentina,AR
Hurlingham,-34.6000,-58.6333,Argentina,AR
Garin,-34.4167,-58.7500,Argentina,AR
El Palomar,-34.6167,-58.5833,Argentina,AR
Beccar,-34.4667,-58.5167,Argentina,AR
Punta Alta,-38.8800,-62.0750,Argentina,AR
Chivilcoy,-34.9000,-60.0167,Argentina,AR
Glew,-34.8833,-58.3833,Argentina,AR
Tres Arroyos,-38.3667,-60.2667,Argentina,AR
Rafael Calzada,-34.7833,-58.3667,Argentina,AR
Azul,-36.7833,-59.8500,Argentina,AR
Belen de Escobar,-34.3333,-58.8167,Argentina,AR
Ensenada,-34.8644,-57.9103,Argentina,AR
Mariano Acosta,-34.7167,-58.7833,Argentina,AR
Guernica,-34.9167,-58.3833,Argentina,AR
Ensenada Berisso,-34.8667,-57.9000,Argentina,AR
El Talar de Pacheco,-34.4719,-58.6550,Argentina,AR
Florida,-34.5167,-58.5000,Argentina,AR
La Reja,-34.6394,-58.8283,Argentina,AR
Longchamps,-34.8500,-58.3833,Argentina,AR
Trenque Lauquen,-35.9667,-62.7000,Argentina,AR
Balcarce,-37.8456,-58.2578,Argentina,AR
San Vicente,-35.0167,-58.4167,Argentina,AR
San Isidro,-34.4667,-58.5167,Argentina,AR
General Pacheco,-34.4500,-58.6500,Argentina,AR
Dock Sur,-34.6417,-58.3478,Argentina,AR
Coronel Suarez,-37.4667,-61.9333,Argentina,AR
Tolosa,-34.8942,-57.9647,Argentina,AR
Llavallol,-34.7667,-58.3833,Argentina,AR
Tortuguitas,-34.4750,-58.7556,Argentina,AR
Claypole,-34.8000,-58.3333,Argentina,AR
Villa Alsina,-34.6667,-58.4167,Argentina,AR
Jose Marmol,-34.7833,-58.3667,Argentina,AR
Pinamar,-37.1000,-56.8500,Argentina,AR
Virreyes,-34.4500,-58.5333,Argentina,AR
Marcos Paz,-34.7667,-58.8333,Argentina,AR
Ingeniero Pablo Nogues,-34.4667,-58.7667,Argentina,AR
Chacabuco,-34.6333,-60.4667,Argentina,AR
San Antonio de Padua,-34.6667,-58.7000,Argentina,AR
Haedo,-34.6500,-58.6000,Argentina,AR
Nueve de Julio,-35.4500,-60.8833,Argentina,AR
Munro,-34.5333,-58.5167,Argentina,AR
Villa Adelina,-34.5167,-58.5333,Argentina,AR
Villa Ballester,-34.5167,-58.5333,Argentina,AR
Chascomus,-35.5750,-58.0089,Argentina,AR
Bragado,-35.1167,-60.5000,Argentina,AR
City Bell,-34.8500,-58.0500,Argentina,AR
Canuelas,-35.0333,-58.7333,Argentina,AR
Avellaneda,-34.6625,-58.3678,Argentina,AR
Pehuajo,-35.8000,-61.9000,Argentina,AR
Lobos,-35.1833,-59.0833,Argentina,AR
Miramar,-38.2667,-57.8333,Argentina,AR
Villa Gesell,-37.2500,-56.9833,Argentina,AR
Baradero,-33.8000,-59.5167,Argentina,AR
General San Martin,-34.5667,-58.5333,Argentina,AR
Adrogue,-34.8000,-58.3833,Argentina,AR
Lincoln,-34.8500,-61.5167,Argentina,AR
Arrecifes,-34.0667,-60.1167,Argentina,AR
Las Flores,-36.0139,-59.1000,Argentina,AR
Muniz,-34.5333,-58.7000,Argentina,AR
Dolores,-36.3167,-57.6667,Argentina,AR
Mar de Ajo,-36.7203,-56.6878,Argentina,AR
Vicente Lopez,-34.5333,-58.4750,Argentina,AR
Tapiales,-34.7058,-58.5047,Argentina,AR
Veinticinco de Mayo,-35.4167,-60.1667,Argentina,AR
Colon,-33.8833,-61.1000,Argentina,AR
San Andres de Giles,-34.4333,-59.4333,Argentina,AR
Manuel B. Gonnet,-34.8500,-58.0167,Argentina,AR
Melchor Romero,-34.9492,-58.0472,Argentina,AR
Alejandro Korn,-34.9667,-58.3667,Argentina,AR
San Antonio de Areco,-34.2500,-59.4667,Argentina,AR
Carlos Casares,-35.6167,-61.3667,Argentina,AR
Don Bosco,-34.7000,-58.2833,Argentina,AR
Carmen de Patagones,-40.7833,-62.9667,Argentina,AR
Matheu,-34.3667,-58.8333,Argentina,AR
Brandsen,-35.1667,-58.2167,Argentina,AR
Saavedra,-37.7833,-62.3500,Argentina,AR
Villa Elisa,-34.8533,-58.0792,Argentina,AR
Billinghurst,-34.5667,-58.5333,Argentina,AR
Martin Coronado,-34.6000,-58.5500,Argentina,AR
Carlos Spegazzini,-34.8833,-58.5667,Argentina,AR
Aldo Bonzi,-34.7083,-58.5181,Argentina,AR
General Juan Madariaga,-37.0167,-57.1333,Argentina,AR
Villa Sarmiento,-34.6333,-58.5667,Argentina,AR
Ayacucho,-37.1333,-58.4667,Argentina,AR
Daireaux,-36.6000,-61.7500,Argentina,AR
Puan,-37.5500,-62.7667,Argentina,AR
General Villegas,-35.0333,-63.0167,Argentina,AR
Carhue,-37.1796,-62.7601,Argentina,AR
La Lucila,-34.4833,-58.4833,Argentina,AR
Carmen de Areco,-34.3858,-59.8294,Argentina,AR
Rauch,-36.7667,-59.1000,Argentina,AR
Benito Juarez,-37.6667,-59.7833,Argentina,AR
Pigue,-37.6167,-62.4167,Argentina,AR
General Belgrano,-35.7667,-58.5000,Argentina,AR
General Viamonte,-35.0000,-61.0333,Argentina,AR
Acasusso,-34.4667,-58.5167,Argentina,AR
General Las Heras,-34.9333,-58.9500,Argentina,AR
Ingeniero Maschwitz,-34.3667,-58.7500,Argentina,AR
Loberia,-38.1333,-58.7667,Argentina,AR
Tornquist,-38.1000,-62.2167,Argentina,AR
Navarro,-35.0167,-59.2667,Argentina,AR
Coronel Dorrego,-38.7000,-61.2667,Argentina,AR
Ramallo,-33.3167,-60.2000,Argentina,AR
Capitan Sarmiento,-34.1667,-59.7833,Argentina,AR
Roque Perez,-35.4167,-59.3167,Argentina,AR
Ingeniero White,-38.7667,-62.2667,Argentina,AR
Ranchos,-35.5333,-58.2833,Argentina,AR
Batan,-38.0078,-57.7097,Argentina,AR
General Alvear,-36.0333,-60.0167,Argentina,AR
Henderson,-36.2833,-61.7167,Argentina,AR
Pedro Luro,-39.5000,-62.6833,Argentina,AR
Adolfo Gonzales Chaves,-38.0333,-60.0833,Argentina,AR
Punta Indio,-35.2667,-57.2167,Argentina,AR
Magdalena,-35.0833,-57.5167,Argentina,AR
Capilla del Senor,-34.2833,-59.1000,Argentina,AR
Maipu,-36.8667,-57.8667,Argentina,AR
Darregueira,-37.6996,-63.1666,Argentina,AR
Villalonga,-39.8829,-62.5833,Argentina,AR
Tandil,-37.3167,-59.1333,Argentina,AR
Buenos Aires,-34.6033,-58.3817,Argentina,AR
Villa Celina,-34.7167,-58.4833,Argentina,AR
Catamarca,-28.4667,-65.7833,Argentina,AR
Santa Maria,-26.6833,-66.0333,Argentina,AR
Andalgala,-27.6000,-66.3167,Argentina,AR
Belen,-27.6500,-67.0333,Argentina,AR
Recreo,-29.2667,-65.0667,Argentina,AR
Tinogasta,-28.0667,-67.5667,Argentina,AR
Chumbicha,-28.8667,-66.2333,Argentina,AR
Resistencia,-27.4514,-58.9867,Argentina,AR
Presidencia Roque Saenz Pena,-26.7833,-60.4500,Argentina,AR
Barranqueras,-27.4833,-58.9333,Argentina,AR
Villa Angela,-27.5833,-60.7167,Argentina,AR
Quitilipi,-26.8667,-60.2167,Argentina,AR
Fontana,-27.4167,-59.0333,Argentina,AR
General Jose de San Martin,-26.5375,-59.3417,Argentina,AR
Castelli,-25.9500,-60.6167,Argentina,AR
Charata,-27.2167,-61.2000,Argentina,AR
Tres Isletas,-26.3500,-60.4167,Argentina,AR
Las Brenas,-27.0667,-61.0667,Argentina,AR
Machagai,-26.9167,-60.0333,Argentina,AR
General Pinedo,-27.3167,-61.2833,Argentina,AR
Presidencia de la Plaza,-26.9833,-59.8333,Argentina,AR
Villa Berthet,-27.2667,-60.4167,Argentina,AR
San Bernardo,-27.2667,-60.7000,Argentina,AR
Campo Largo,-26.8000,-60.8333,Argentina,AR
Corzuela,-26.9333,-60.9667,Argentina,AR
La Leonesa,-27.0500,-58.7167,Argentina,AR
Puerto Tirol,-27.3667,-59.0667,Argentina,AR
Santa Sylvina,-27.7833,-61.1500,Argentina,AR
Coronel Du Graty,-27.6667,-60.9333,Argentina,AR
Pampa del Infierno,-26.5167,-61.1667,Argentina,AR
Comodoro Rivadavia,-45.8647,-67.4808,Argentina,AR
Puerto Madryn,-42.7667,-65.0500,Argentina,AR
Trelew,-43.2500,-65.3000,Argentina,AR
Esquel,-42.9000,-71.3167,Argentina,AR
Rawson,-43.3000,-65.1000,Argentina,AR
Sarmiento,-45.6000,-69.0833,Argentina,AR
Rada Tilly,-45.9333,-67.5333,Argentina,AR
El Maiten,-42.0500,-71.1667,Argentina,AR
Rio Mayo,-45.6869,-70.2600,Argentina,AR
Alto Rio Senguer,-45.0167,-70.8167,Argentina,AR
Gastre,-42.2667,-69.2167,Argentina,AR
Telsen,-42.3833,-66.9500,Argentina,AR
Cordoba,-31.4167,-64.1833,Argentina,AR
Rio Cuarto,-33.1333,-64.3500,Argentina,AR
Villa Maria,-32.4103,-63.2314,Argentina,AR
Villa Carlos Paz,-31.4000,-64.5167,Argentina,AR
San Francisco,-31.4356,-62.0714,Argentina,AR
Cosquin,-31.2436,-64.4653,Argentina,AR
Alta Gracia,-31.6667,-64.4333,Argentina,AR
Rio Tercero,-32.1833,-64.1000,Argentina,AR
Bell Ville,-32.6333,-62.6833,Argentina,AR
La Calera,-31.3439,-64.3353,Argentina,AR
Jesus Maria,-30.9833,-64.1000,Argentina,AR
Cruz del Eje,-30.7333,-64.8000,Argentina,AR
Villa Dolores,-31.9333,-65.2000,Argentina,AR
Marcos Juarez,-32.7000,-62.1000,Argentina,AR
Arroyito,-31.4167,-63.0500,Argentina,AR
Dean Funes,-30.4333,-64.3500,Argentina,AR
Laboulaye,-34.1167,-63.4000,Argentina,AR
Rio Segundo,-31.6501,-63.9116,Argentina,AR
Villa Nueva,-32.4331,-63.2475,Argentina,AR
Unquillo,-31.2333,-64.3167,Argentina,AR
Monte Cristo,-31.3431,-63.9444,Argentina,AR
General Deheza,-32.7564,-63.7889,Argentina,AR
Morteros,-30.7000,-62.0000,Argentina,AR
La Falda,-31.0833,-64.5000,Argentina,AR
Villa del Rosario,-31.5833,-63.5333,Argentina,AR
Pilar,-31.6833,-63.9000,Argentina,AR
Oncativo,-31.9167,-63.6667,Argentina,AR
Santa Rosa de Calamuchita,-32.0667,-64.5333,Argentina,AR
La Carlota,-33.4333,-63.3000,Argentina,AR
Malvinas Argentinas,-31.3697,-64.0531,Argentina,AR
General Cabrera,-32.7994,-63.8683,Argentina,AR
Oliva,-32.0333,-63.5667,Argentina,AR
Hernando,-32.4167,-63.7333,Argentina,AR
Capilla del Monte,-30.8500,-64.5167,Argentina,AR
Santa Rosa de Rio Primero,-31.1500,-63.3833,Argentina,AR
Frontera,-31.4278,-62.0619,Argentina,AR
Corral de Bustos,-33.2833,-62.2000,Argentina,AR
Leones,-32.6617,-62.2967,Argentina,AR
Brinkmann,-30.8669,-62.0336,Argentina,AR
Santa Maria,-31.2611,-64.4639,Argentina,AR
Huinca Renanco,-34.8333,-64.3833,Argentina,AR
Embalse,-32.1833,-64.4167,Argentina,AR
Villa Rumipal,-32.1879,-64.4803,Argentina,AR
Corrientes,-27.4833,-58.8167,Argentina,AR
Goya,-29.1333,-59.2500,Argentina,AR
San Lorenzo,-28.1200,-58.7700,Argentina,AR
Paso de los Libres,-29.7167,-57.0833,Argentina,AR
Curuzu Cuatia,-29.7833,-58.0833,Argentina,AR
Mercedes,-29.2000,-58.0833,Argentina,AR
Gobernador Virasora,-28.0500,-56.0333,Argentina,AR
Bella Vista,-28.4667,-59.0500,Argentina,AR
Monte Caseros,-30.2500,-57.6500,Argentina,AR
Santo Tome,-28.5500,-56.0500,Argentina,AR
Ituzaingo,-27.6000,-56.6667,Argentina,AR
Saladas,-28.2500,-58.6167,Argentina,AR
San Luis del Palmar,-27.5167,-58.5667,Argentina,AR
Empedrado,-27.9333,-58.7833,Argentina,AR
Santa Lucia,-28.9833,-59.1000,Argentina,AR
San Roque,-28.5667,-58.7167,Argentina,AR
Sauce,-30.0667,-58.7667,Argentina,AR
Mburucuya,-28.0500,-58.2333,Argentina,AR
La Cruz,-28.1833,-56.6500,Argentina,AR
Parana,-31.7331,-60.5297,Argentina,AR
Concordia,-31.4000,-58.0333,Argentina,AR
Gualeguaychu,-33.0167,-58.5167,Argentina,AR
Concepcion del Uruguay,-32.4833,-58.2333,Argentina,AR
Villaguay,-31.8500,-59.0167,Argentina,AR
Chajari,-30.7667,-57.9833,Argentina,AR
Gualeguay,-33.1500,-59.3333,Argentina,AR
Victoria,-32.6167,-60.1667,Argentina,AR
La Paz,-30.7500,-59.6500,Argentina,AR
Colon,-32.2167,-58.1333,Argentina,AR
Nogoya,-32.4000,-59.8000,Argentina,AR
Crespo,-32.0333,-60.3167,Argentina,AR
Diamante,-32.0667,-60.6500,Argentina,AR
Santa Elena,-30.9500,-59.8000,Argentina,AR
Federacion,-30.9833,-57.9167,Argentina,AR
Villa San Jose,-32.2000,-58.2167,Argentina,AR
Federal,-30.9500,-58.8000,Argentina,AR
Villa Paranacito,-33.7000,-58.6833,Argentina,AR
Rosario del Tala,-32.3000,-59.1333,Argentina,AR
San Salvador,-31.6167,-58.5000,Argentina,AR
San Jose de Feliciano,-30.3833,-58.7500,Argentina,AR
Villa Elisa,-32.1667,-58.4000,Argentina,AR
Basavilbaso,-32.3667,-58.8833,Argentina,AR
Urdinarrain,-32.6856,-58.8867,Argentina,AR
Viale,-31.8667,-60.0167,Argentina,AR
Formosa,-26.1833,-58.1833,Argentina,AR
Pirane,-25.7328,-59.1100,Argentina,AR
Clorinda,-25.2833,-57.7167,Argentina,AR
Las Lomitas,-24.7072,-60.5944,Argentina,AR
Ingeniero Guillermo N. Juarez,-23.9000,-61.8500,Argentina,AR
Comandante Fontana,-25.3333,-59.6833,Argentina,AR
San Salvador de Jujuy,-24.1833,-65.3000,Argentina,AR
San Pedro,-24.2196,-64.8700,Argentina,AR
Palpala,-24.2500,-65.1167,Argentina,AR
Libertador General San Martin,-23.8000,-64.7833,Argentina,AR
La Quiaca,-22.1042,-65.5972,Argentina,AR
Humahuaca,-23.2000,-65.3500,Argentina,AR
Abra Pampa,-22.7167,-65.7000,Argentina,AR
Monte Rico,-24.4514,-65.1667,Argentina,AR
Susques,-23.4167,-66.4833,Argentina,AR
Rinconada,-22.4333,-66.1667,Argentina,AR
Santa Rosa,-36.6167,-64.2833,Argentina,AR
General Pico,-35.6667,-63.7333,Argentina,AR
General Acha,-37.3833,-64.6000,Argentina,AR
Rio Colorado,-38.9908,-64.0958,Argentina,AR
Veinticinco de Mayo,-37.7712,-67.7174,Argentina,AR
Victorica,-36.2167,-65.4500,Argentina,AR
La Rioja,-29.4125,-66.8542,Argentina,AR
Chilecito,-29.1667,-67.5000,Argentina,AR
Chamical,-30.3667,-66.3167,Argentina,AR
Villa Union,-29.3000,-68.2000,Argentina,AR
Chepes,-31.3500,-66.6000,Argentina,AR
San Rafael,-34.6000,-68.3333,Argentina,AR
Godoy Cruz,-32.9167,-68.8333,Argentina,AR
Las Heras,-32.8500,-68.8167,Argentina,AR
Mendoza,-32.8833,-68.8167,Argentina,AR
Maipu,-32.9667,-68.7500,Argentina,AR
Rivadavia,-33.1833,-68.4667,Argentina,AR
San Martin,-33.0806,-68.4706,Argentina,AR
Lujan de Cuyo,-32.9980,-68.8730,Argentina,AR
Tunuyan,-33.5667,-69.0167,Argentina,AR
General Alvear,-34.9667,-67.7000,Argentina,AR
Malargue,-35.4750,-69.5833,Argentina,AR
Santa Rosa,-33.2500,-68.1500,Argentina,AR
La Paz,-33.4667,-67.5500,Argentina,AR
Uspallata,-32.5667,-69.3167,Argentina,AR
Posadas,-27.3667,-55.9000,Argentina,AR
Puerto Iguazu,-25.6000,-54.5667,Argentina,AR
Obera,-27.4833,-55.1333,Argentina,AR
Eldorado,-26.4000,-54.6333,Argentina,AR
Apostoles,-27.9167,-55.7667,Argentina,AR
Aristobulo del Valle,-27.1167,-54.9167,Argentina,AR
Garupa,-27.4833,-55.8333,Argentina,AR
Jardin America,-27.0500,-55.2333,Argentina,AR
Leandro N. Alem,-27.6000,-55.3333,Argentina,AR
Candelaria,-27.4594,-55.7453,Argentina,AR
Puerto Rico,-26.8000,-55.0167,Argentina,AR
Wanda,-25.9667,-54.5833,Argentina,AR
Bernardo de Irigoyen,-26.2500,-53.9833,Argentina,AR
Neuquen,-38.9525,-68.0642,Argentina,AR
Cutral-Co,-38.9333,-69.2333,Argentina,AR
Centenario,-38.8000,-68.1333,Argentina,AR
Plottier,-38.9500,-68.2333,Argentina,AR
Zapala,-38.9000,-70.0667,Argentina,AR
San Martin de los Andes,-40.1667,-71.3500,Argentina,AR
Plaza Huincul,-38.9338,-69.1987,Argentina,AR
Chos Malal,-37.3833,-70.2667,Argentina,AR
Junin de los Andes,-39.9167,-71.0667,Argentina,AR
Villa La Angostura,-40.7625,-71.6463,Argentina,AR
Las Lajas,-38.6000,-70.3000,Argentina,AR
General Roca,-39.0333,-67.5833,Argentina,AR
San Carlos de Bariloche,-41.1500,-71.3000,Argentina,AR
Cipolletti,-38.9333,-67.9833,Argentina,AR
Viedma,-40.8000,-63.0000,Argentina,AR
Catriel,-37.8667,-67.8333,Argentina,AR
Villa Regina,-39.1000,-67.0667,Argentina,AR
Allen,-38.9667,-67.8333,Argentina,AR
Cinco Saltos,-38.8167,-68.0667,Argentina,AR
El Bolson,-41.9667,-71.5333,Argentina,AR
San Antonio Oeste,-40.7333,-64.9500,Argentina,AR
Choele Choel,-39.2667,-65.6833,Argentina,AR
Ingeniero Jacobacci,-41.3000,-69.5833,Argentina,AR
General Conesa,-40.1000,-64.4167,Argentina,AR
Sierra Colorada,-40.5833,-67.8000,Argentina,AR
Comallo,-41.0333,-70.2667,Argentina,AR
Salta,-24.7833,-65.4167,Argentina,AR
San Ramon de la Nueva Oran,-23.1333,-64.3333,Argentina,AR
Tartagal,-22.5000,-63.8333,Argentina,AR
General Martin Miguel de Guemes,-24.6667,-65.0500,Argentina,AR
Pichanal,-23.3167,-64.2167,Argentina,AR
Rosario de la Frontera,-25.8000,-64.9667,Argentina,AR
Embarcacion,-23.2167,-64.1000,Argentina,AR
Rosario de Lerma,-24.9833,-65.5833,Argentina,AR
Joaquin V. Gonzalez,-25.0833,-64.1833,Argentina,AR
Profesor Salvador Mazza,-22.0500,-63.7000,Argentina,AR
Cerrillos,-24.9000,-65.4833,Argentina,AR
General Enrique Mosconi,-22.6000,-63.8167,Argentina,AR
Cafayate,-26.0833,-65.9667,Argentina,AR
San Antonio de los Cobres,-24.2178,-66.3200,Argentina,AR
Los Blancos,-23.6000,-62.6000,Argentina,AR
San Juan,-31.5342,-68.5261,Argentina,AR
Villa Krause,-31.5833,-68.5333,Argentina,AR
Chimbas,-31.5000,-68.5319,Argentina,AR
Rivadavia,-31.5303,-68.5947,Argentina,AR
Caucete,-31.6500,-68.2833,Argentina,AR
San Martin,-31.4397,-68.5206,Argentina,AR
San Jose de Jachal,-30.2333,-68.7500,Argentina,AR
Villa Aberastain,-31.6500,-68.5833,Argentina,AR
Rodeo,-30.2164,-69.1394,Argentina,AR
San Luis,-33.3000,-66.3333,Argentina,AR
Villa Mercedes,-33.6667,-65.4667,Argentina,AR
Justo Daract,-33.8667,-65.1667,Argentina,AR
Rio Gallegos,-51.6233,-69.2161,Argentina,AR
Caleta Olivia,-46.4333,-67.5333,Argentina,AR
El Calafate,-50.3378,-72.2600,Argentina,AR
Pico Truncado,-46.7950,-67.9550,Argentina,AR
Las Heras,-46.5500,-68.9500,Argentina,AR
Puerto Deseado,-47.7500,-65.9167,Argentina,AR
Yacimiento Rio Turbio,-51.5333,-72.3000,Argentina,AR
San Julian,-49.3000,-67.7167,Argentina,AR
Comandante Luis Piedra Buena,-49.9830,-68.9100,Argentina,AR
Veintiocho de Noviembre,-51.6500,-72.3000,Argentina,AR
Perito Moreno,-46.5886,-70.9242,Argentina,AR
Gobernador Gregores,-48.7667,-70.2500,Argentina,AR
Rosario,-32.9575,-60.6394,Argentina,AR
Santa Fe,-31.6333,-60.7000,Argentina,AR
Rafaela,-31.2667,-61.4833,Argentina,AR
Gobernador Galvez,-33.0256,-60.6336,Argentina,AR
Reconquista,-29.2333,-59.9333,Argentina,AR
Santo Tome,-31.6667,-60.7667,Argentina,AR
Villa Constitucion,-33.2333,-60.3333,Argentina,AR
San Lorenzo,-32.7500,-60.7333,Argentina,AR
Esperanza,-31.4167,-60.9333,Argentina,AR
Granadero Baigorria,-32.8500,-60.7000,Argentina,AR
Casilda,-33.0500,-61.1667,Argentina,AR
Capitan Bermudez,-32.8167,-60.7167,Argentina,AR
Canada de Gomez,-32.8167,-61.4000,Argentina,AR
Perez,-33.0000,-60.7667,Argentina,AR
Firmat,-33.4500,-61.4833,Argentina,AR
Funes,-32.9167,-60.8167,Argentina,AR
Avellaneda,-29.1175,-59.6583,Argentina,AR
San Justo,-30.7833,-60.5833,Argentina,AR
Arroyo Seco,-33.1667,-60.5000,Argentina,AR
Sunchales,-30.9333,-61.5667,Argentina,AR
Galvez,-32.0333,-61.2167,Argentina,AR
Vera,-29.4667,-60.2167,Argentina,AR
Rufino,-34.2667,-62.7000,Argentina,AR
Coronda,-31.9667,-60.9167,Argentina,AR
San Jorge,-31.8961,-61.8597,Argentina,AR
Carcarana,-32.8500,-61.1500,Argentina,AR
Fray Luis A. Beltran,-32.7833,-60.7333,Argentina,AR
Villa Ocampo,-28.4833,-59.3500,Argentina,AR
Tostado,-29.2333,-61.7667,Argentina,AR
Ceres,-29.8667,-61.9500,Argentina,AR
San Cristobal,-30.3167,-61.2333,Argentina,AR
Roldan,-32.9011,-60.9072,Argentina,AR
Las Rosas,-32.4833,-61.5833,Argentina,AR
San Javier,-30.5833,-59.9500,Argentina,AR
Puerto San Martin,-32.7167,-60.7333,Argentina,AR
Las Parejas,-32.6833,-61.5333,Argentina,AR
Laguna Paiva,-31.3039,-60.6589,Argentina,AR
Armstrong,-32.7833,-61.6000,Argentina,AR
El Trebol,-32.1833,-61.7167,Argentina,AR
San Carlos Centro,-31.7333,-61.1000,Argentina,AR
Alcorta,-33.5333,-61.1167,Argentina,AR
Villa Canas,-34.0000,-61.6000,Argentina,AR
Romang,-29.5000,-59.7667,Argentina,AR
Venado Tuerto,-33.7500,-61.9667,Argentina,AR
Santiago del Estero,-27.7833,-64.2667,Argentina,AR
La Banda,-27.7333,-64.2500,Argentina,AR
Termas de Rio Hondo,-27.4833,-64.8667,Argentina,AR
Frias,-28.6333,-65.1333,Argentina,AR
Anatuya,-28.4667,-62.8333,Argentina,AR
Villa Ojo de Agua,-29.5167,-63.7000,Argentina,AR
Monte Quemado,-25.8036,-62.8303,Argentina,AR
Quimili,-27.6333,-62.4167,Argentina,AR
Ciudad de Loreto,-28.3000,-64.2000,Argentina,AR
Rio Grande,-53.7833,-67.7000,Argentina,AR
Ushuaia,-54.8019,-68.3031,Argentina,AR
Kaiken,-54.5062,-67.1905,Argentina,AR
San Miguel de Tucuman,-26.8167,-65.2167,Argentina,AR
Banda del Rio Sali,-26.8500,-65.1667,Argentina,AR
Yerba Buena,-26.8167,-65.3167,Argentina,AR
Concepcion,-27.3333,-65.5833,Argentina,AR
Tafi Viejo,-26.7333,-65.2667,Argentina,AR
Aguilares,-27.4333,-65.6167,Argentina,AR
Monteros,-27.1667,-65.5000,Argentina,AR
Famailla,-27.0500,-65.4000,Argentina,AR
San Isidro de Lules,-26.9333,-65.3500,Argentina,AR
Bella Vista,-27.0333,-65.3000,Argentina,AR
Villa Nougues,-26.8578,-65.3756,Argentina,AR
Trancas,-26.2172,-65.2831,Argentina,AR
Ashtarak,40.2975,44.3617,Armenia,AM
Masis,40.0633,44.4408,Armenia,AM
Artashat,39.9539,44.5506,Armenia,AM
Ararat,39.8303,44.7025,Armenia,AM
Vedi,39.9106,44.7278,Armenia,AM
Ejmiatsin,40.1728,44.2925,Armenia,AM
Armavir,40.1500,44.0400,Armenia,AM
Metsamor,40.1428,44.1164,Armenia,AM
Sevan,40.5550,44.9536,Armenia,AM
Gavarr,40.3589,45.1267,Armenia,AM
Vardenis,40.1806,45.7200,Armenia,AM
Martuni,40.1400,45.3064,Armenia,AM
Vardenik,40.1331,45.4367,Armenia,AM
Nerk'in Getashen,40.1467,45.2642,Armenia,AM
Hrazdan,40.5000,44.7667,Armenia,AM
Abovyan,40.2739,44.6256,Armenia,AM
Charentsavan,40.4097,44.6431,Armenia,AM
Yeghvard,40.3217,44.4814,Armenia,AM
Byureghavan,40.3147,44.5936,Armenia,AM
Nor Hachn,40.3019,44.5831,Armenia,AM
Vanadzor,40.8128,44.4883,Armenia,AM
Stepanavan,41.0096,44.3841,Armenia,AM
Spitak,40.8372,44.2675,Armenia,AM
Alaverdi,41.1333,44.6500,Armenia,AM
Tashir,41.1244,44.2819,Armenia,AM
Gyumri,40.7894,43.8475,Armenia,AM
Artik,40.6167,43.9500,Armenia,AM
Artik,40.6172,43.9758,Armenia,AM
Kapan,39.2011,46.4150,Armenia,AM
Goris,39.5078,46.3386,Armenia,AM
Sisian,39.5208,46.0322,Armenia,AM
Ijevan,40.8792,45.1472,Armenia,AM
Dilijan,40.7408,44.8631,Armenia,AM
Berd,40.8808,45.3917,Armenia,AM
Yeghegnadzor,39.7611,45.3333,Armenia,AM
Yerevan,40.1814,44.5144,Armenia,AM
Oranjestad,12.5186,-70.0358,Aruba,AW
Tanki Leendert,12.5418,-70.0220,Aruba,AW
Canberra,-35.2931,149.1269,Australia,AU
Sydney,-33.8678,151.2100,Australia,AU
Central Coast,-33.3000,151.2000,Australia,AU
Wollongong,-34.4331,150.8831,Australia,AU
Newcastle,-32.9167,151.7500,Australia,AU
Wagga Wagga,-35.1189,147.3689,Australia,AU
Port Macquarie,-31.4333,152.9000,Australia,AU
Dubbo,-32.2569,148.6011,Australia,AU
Orange,-33.2833,149.1000,Australia,AU
Bathurst,-33.4200,149.5778,Australia,AU
Quakers Hill,-33.7361,150.8778,Australia,AU
Coffs Harbour,-30.3022,153.1189,Australia,AU
Goulburn,-34.7547,149.6186,Australia,AU
Armidale,-30.5000,151.6500,Australia,AU
Griffith,-34.2900,146.0400,Australia,AU
Broken Hill,-31.9500,141.4667,Australia,AU
Taree,-31.9000,152.4500,Australia,AU
Banora Point,-28.2167,153.5333,Australia,AU
Ulladulla,-35.3486,150.4678,Australia,AU
Cessnock,-32.8342,151.3555,Australia,AU
Forster,-32.1806,152.5117,Australia,AU
Penrith,-33.7511,150.6942,Australia,AU
Goonellabah,-28.8167,153.3167,Australia,AU
Raymond Terrace,-32.7615,151.7441,Australia,AU
Campbelltown,-34.0667,150.8167,Australia,AU
Rutherford,-32.7153,151.5250,Australia,AU
Batemans Bay,-35.7081,150.1744,Australia,AU
Muswellbrook,-32.2656,150.8886,Australia,AU
Grafton,-29.6833,152.9333,Australia,AU
Bowral,-34.4792,150.4181,Australia,AU
Casino,-28.8667,153.0500,Australia,AU
Parkes,-33.1333,148.1667,Australia,AU
Mudgee,-32.6125,149.5872,Australia,AU
Inverell,-29.7667,151.1167,Australia,AU
Nowra,-34.8808,150.6075,Australia,AU
Flemington,-33.8680,151.0709,Australia,AU
Kelso,-33.4189,149.6058,Australia,AU
Ballina,-28.8636,153.5328,Australia,AU
Moss Vale,-34.5500,150.3833,Australia,AU
Gunnedah,-30.9667,150.2500,Australia,AU
Cowra,-33.8339,148.6861,Australia,AU
Tweed Heads,-28.1833,153.5500,Australia,AU
Katoomba,-33.7100,150.3100,Australia,AU
Young,-34.3000,148.3000,Australia,AU
Leeton,-34.5667,146.4000,Australia,AU
Moree,-29.4658,149.8339,Australia,AU
Kiama,-34.6708,150.8542,Australia,AU
Forbes,-33.3833,148.0167,Australia,AU
Cooma,-36.2350,149.1258,Australia,AU
Deniliquin,-35.5333,144.9667,Australia,AU
Queanbeyan,-35.3533,149.2342,Australia,AU
Tumut,-35.3047,148.2228,Australia,AU
Yamba,-29.4333,153.3500,Australia,AU
Byron Bay,-28.6431,153.6150,Australia,AU
Narrabri,-30.3167,149.7667,Australia,AU
Richmond,-33.6000,150.7500,Australia,AU
Scone,-32.0833,150.8500,Australia,AU
Singleton,-32.5667,151.1697,Australia,AU
Lithgow,-33.4833,150.1500,Australia,AU
Albury,-36.0806,146.9158,Australia,AU
Lismore,-28.8167,153.2833,Australia,AU
Merimbula,-36.8981,149.9011,Australia,AU
Maitland,-32.7167,151.5500,Australia,AU
Bourke,-30.1000,145.9333,Australia,AU
Wilcannia,-31.5569,143.3792,Australia,AU
Kempsey,-31.0833,152.8333,Australia,AU
Tamworth,-31.0833,150.9167,Australia,AU
Ivanhoe,-32.9164,144.2994,Australia,AU
Darwin,-12.4381,130.8411,Australia,AU
Palmerston,-12.4806,130.9831,Australia,AU
Alice Springs,-23.7000,133.8700,Australia,AU
McMinns Lagoon,-12.5329,131.0500,Australia,AU
Katherine,-14.4667,132.2667,Australia,AU
Yulara,-25.2069,130.9710,Australia,AU
Pine Creek,-13.8235,131.8262,Australia,AU
Adelaide River,-13.2378,131.1047,Australia,AU
Brisbane,-27.4678,153.0281,Australia,AU
Gold Coast,-28.0167,153.4000,Australia,AU
Ipswich,-27.6144,152.7608,Australia,AU
Townsville,-19.2500,146.8167,Australia,AU
Cairns,-16.9200,145.7800,Australia,AU
Toowoomba,-27.5667,151.9500,Australia,AU
Mackay,-21.1411,149.1858,Australia,AU
Bundaberg,-24.8661,152.3494,Australia,AU
Rockhampton,-23.3781,150.5136,Australia,AU
Hervey Bay,-25.2900,152.8400,Australia,AU
Buderim,-26.6847,153.0532,Australia,AU
Caloundra,-26.8047,153.1338,Australia,AU
Gladstone,-23.8427,151.2555,Australia,AU
Southport,-27.9678,153.4136,Australia,AU
Caboolture,-27.0850,152.9513,Australia,AU
Yaraka,-24.8819,144.0780,Australia,AU
Narangba,-27.2022,152.9591,Australia,AU
Nerang,-27.9902,153.3358,Australia,AU
Maroochydore,-26.6553,153.0932,Australia,AU
Maryborough,-25.5375,152.7019,Australia,AU
Rochedale,-27.5991,153.1297,Australia,AU
Ormeau,-27.7966,153.2600,Australia,AU
Emerald,-23.5208,148.1619,Australia,AU
Coomera,-27.8722,153.3147,Australia,AU
Warwick,-28.2152,152.0352,Australia,AU
Dalby,-27.1813,151.2661,Australia,AU
Gracemere,-23.4391,150.4558,Australia,AU
Nambour,-26.6269,152.9591,Australia,AU
Corinda,-27.4858,153.1011,Australia,AU
Gympie,-26.1900,152.6655,Australia,AU
Kingaroy,-26.5410,151.8400,Australia,AU
Bowen,-20.0102,148.2416,Australia,AU
Highfields,-27.4633,151.9458,Australia,AU
Andergrove,-21.0930,149.1855,Australia,AU
Currumbin,-28.1575,153.4686,Australia,AU
Bargara,-24.8205,152.4625,Australia,AU
Moranbah,-22.0016,148.0533,Australia,AU
Redlynch,-16.8894,145.6977,Australia,AU
Mareeba,-16.9969,145.4230,Australia,AU
Ayr,-19.5744,147.4066,Australia,AU
Charters Towers,-20.0765,146.2614,Australia,AU
Atherton,-17.2658,145.4780,Australia,AU
Bongaree,-27.0813,153.1636,Australia,AU
Roma,-26.5733,148.7869,Australia,AU
Yeppoon,-23.1288,150.7444,Australia,AU
Biloela,-24.4002,150.5133,Australia,AU
Goondiwindi,-28.5461,150.3097,Australia,AU
Ingham,-18.6508,146.1572,Australia,AU
Port Douglas,-16.4834,145.4652,Australia,AU
Proserpine,-20.4016,148.5808,Australia,AU
Weipa,-12.6300,141.8786,Australia,AU
Longreach,-23.4422,144.2491,Australia,AU
Charleville,-26.4016,146.2383,Australia,AU
Cloncurry,-20.7047,140.5052,Australia,AU
Barcaldine,-23.5569,145.2883,Australia,AU
Innisfail,-17.5238,146.0311,Australia,AU
Hughenden,-20.8438,144.1986,Australia,AU
Winton,-22.3913,143.0381,Australia,AU
Quilpie,-26.6161,144.2675,Australia,AU
Karumba,-17.4838,140.8397,Australia,AU
Richmond,-20.7305,143.1425,Australia,AU
Theodore,-24.9472,150.0755,Australia,AU
Eidsvold,-25.3719,151.1230,Australia,AU
Burketown,-17.7408,139.5477,Australia,AU
Georgetown,-18.2922,143.5480,Australia,AU
Boulia,-22.9097,139.9066,Australia,AU
Thargomindah,-27.9922,143.8197,Australia,AU
Camooweal,-19.9211,138.1194,Australia,AU
Bedourie,-24.3594,139.4691,Australia,AU
Mount Isa,-20.7261,139.4938,Australia,AU
Birdsville,-25.8986,139.3513,Australia,AU
Windorah,-25.4205,142.6544,Australia,AU
Adelaide,-34.9275,138.6000,Australia,AU
Mount Gambier,-37.8294,140.7828,Australia,AU
Whyalla,-33.0333,137.5667,Australia,AU
Murray Bridge,-35.1170,139.2670,Australia,AU
Port Lincoln,-34.7322,135.8586,Australia,AU
Mount Barker,-35.0667,138.8500,Australia,AU
Port Augusta,-32.4925,137.7658,Australia,AU
Victor Harbor,-35.5500,138.6167,Australia,AU
Berri,-34.2833,140.6000,Australia,AU
Ceduna,-32.1167,133.6667,Australia,AU
Wallaroo,-33.9167,137.6167,Australia,AU
Clare,-33.8333,138.6000,Australia,AU
Bordertown,-36.3118,140.7702,Australia,AU
Tumby Bay,-34.3667,136.1000,Australia,AU
Peterborough,-32.9667,138.8333,Australia,AU
Penola,-37.3786,140.8362,Australia,AU
Kingston South East,-36.8167,139.8500,Australia,AU
Cowell,-33.6833,136.9167,Australia,AU
Streaky Bay,-32.7990,134.2048,Australia,AU
Meningie,-35.6883,139.3378,Australia,AU
Gawler,-34.5981,138.7450,Australia,AU
Kimba,-33.1396,136.4191,Australia,AU
Woomera,-31.1496,136.8000,Australia,AU
Andamooka,-30.4485,137.1651,Australia,AU
Port Pirie,-33.1858,138.0169,Australia,AU
Kingoonya,-30.9170,135.3147,Australia,AU
Hobart,-42.8806,147.3250,Australia,AU
Launceston,-41.4419,147.1450,Australia,AU
Devonport,-41.1800,146.3503,Australia,AU
Burnie,-41.0636,145.8753,Australia,AU
Kingston,-42.9769,147.3083,Australia,AU
Smithton,-40.8417,145.1250,Australia,AU
Scottsdale,-41.1667,147.5167,Australia,AU
Queenstown,-42.0806,145.5556,Australia,AU
Bicheno,-41.8667,148.2833,Australia,AU
Oatlands,-42.3000,147.3706,Australia,AU
Melbourne,-37.8142,144.9631,Australia,AU
Cranbourne,-38.0996,145.2834,Australia,AU
Geelong,-38.1500,144.3500,Australia,AU
Ballarat,-37.5608,143.8475,Australia,AU
Bendigo,-36.7500,144.2667,Australia,AU
Melton,-37.6833,144.5833,Australia,AU
Pakenham,-38.0712,145.4878,Australia,AU
Frankston,-38.1333,145.1167,Australia,AU
Sunbury,-37.5811,144.7139,Australia,AU
Mildura,-34.1889,142.1583,Australia,AU
Shepparton,-36.3833,145.4000,Australia,AU
Dandenong,-37.9810,145.2150,Australia,AU
Warrnambool,-38.3833,142.4833,Australia,AU
Traralgon,-38.1958,146.5403,Australia,AU
Warragul,-38.1500,145.9333,Australia,AU
Wodonga,-36.1214,146.8881,Australia,AU
Mount Eliza,-38.1890,145.0920,Australia,AU
Wangaratta,-36.3583,146.3125,Australia,AU
Lara,-38.0167,144.4167,Australia,AU
Horsham,-36.7167,142.2000,Australia,AU
Echuca,-36.1333,144.7500,Australia,AU
Wallan,-37.4167,144.9833,Australia,AU
Barwon Heads,-38.2500,144.5167,Australia,AU
Morwell,-38.2333,146.4000,Australia,AU
Sale,-38.1000,147.0667,Australia,AU
Torquay,-38.3333,144.3167,Australia,AU
Leopold,-38.1892,144.4644,Australia,AU
Drouin,-38.1333,145.8500,Australia,AU
Somerville,-38.2260,145.1770,Australia,AU
Kangaroo Flat,-36.7833,144.2333,Australia,AU
Benalla,-36.5519,145.9817,Australia,AU
Hamilton,-37.7333,142.0167,Australia,AU
Swan Hill,-35.3333,143.5500,Australia,AU
Portland,-38.3333,141.6000,Australia,AU
Mount Evelyn,-37.7830,145.3850,Australia,AU
Wollert,-37.5970,145.0330,Australia,AU
Colac,-38.3403,143.5847,Australia,AU
Gisborne,-37.4900,144.5889,Australia,AU
Moe,-38.1722,146.2678,Australia,AU
Maryborough,-37.0500,143.7350,Australia,AU
Bairnsdale,-37.8333,147.6167,Australia,AU
Ararat,-37.2833,142.9167,Australia,AU
Seymour,-37.0300,145.1300,Australia,AU
Stawell,-37.0500,142.7667,Australia,AU
Cobram,-35.9667,145.6500,Australia,AU
Wonthaggi,-38.6056,145.5917,Australia,AU
Ouyen,-35.0667,142.3167,Australia,AU
Perth,-31.9559,115.8606,Australia,AU
Mandurah,-32.5289,115.7231,Australia,AU
Bunbury,-33.3272,115.6369,Australia,AU
Geraldton,-28.7744,114.6089,Australia,AU
Kalgoorlie,-30.7489,121.4658,Australia,AU
Busselton,-33.6478,115.3458,Australia,AU
Albany,-35.0228,117.8814,Australia,AU
Kwinana,-32.2394,115.7702,Australia,AU
Karratha,-20.7364,116.8464,Australia,AU
Australind,-33.2800,115.7260,Australia,AU
Broome,-17.9619,122.2361,Australia,AU
Yanchep,-31.5500,115.6340,Australia,AU
Northam,-31.6531,116.6661,Australia,AU
Newman,-23.3539,119.7319,Australia,AU
Kununurra,-15.7736,128.7386,Australia,AU
Narrogin,-32.9360,117.1780,Australia,AU
Manjimup,-34.2411,116.1464,Australia,AU
Port Hedland,-20.3100,118.6011,Australia,AU
Katanning,-33.6908,117.5553,Australia,AU
Tom Price,-22.6939,117.7950,Australia,AU
Exmouth,-21.9331,114.1281,Australia,AU
Merredin,-31.4820,118.2790,Australia,AU
Esperance,-33.8611,121.8919,Australia,AU
Mount Barker,-34.6300,117.6669,Australia,AU
Halls Creek,-18.2300,127.6700,Australia,AU
Port Denison,-29.2750,114.9194,Australia,AU
Wagin,-33.3167,117.3500,Australia,AU
Kalbarri,-27.7100,114.1600,Australia,AU
Laverton,-28.6278,122.4031,Australia,AU
Gingin,-31.3400,115.9100,Australia,AU
Onslow,-21.6400,115.1100,Australia,AU
Wyndham,-15.4825,128.1228,Australia,AU
Roebourne,-20.7667,117.1500,Australia,AU
Pannawonica,-21.6333,116.3333,Australia,AU
Meekatharra,-26.5936,118.4953,Australia,AU
Leonora,-28.8845,121.3308,Australia,AU
Norseman,-32.1961,121.7781,Australia,AU
Southern Cross,-31.2306,119.3278,Australia,AU
Mount Magnet,-28.0600,117.8461,Australia,AU
Morawa,-29.2111,116.0089,Australia,AU
Three Springs,-29.5333,115.7617,Australia,AU
Ravensthorpe,-33.5817,120.0469,Australia,AU
Carnarvon,-24.8672,113.6611,Australia,AU
Eisenstadt,47.8500,16.5167,Austria,AT
Klagenfurt,46.6167,14.3000,Austria,AT
Villach,46.6167,13.8500,Austria,AT
Wolfsberg,46.8500,14.8333,Austria,AT
Spittal an der Drau,46.7833,13.4833,Austria,AT
Feldkirchen,46.7167,14.1000,Austria,AT
Sankt Veit an der Glan,46.7667,14.3667,Austria,AT
Volkermarkt,46.6667,14.6333,Austria,AT
Sankt Andra,46.7667,14.8167,Austria,AT
Velden am Worthersee,46.6000,14.0333,Austria,AT
Sankt Polten,48.2000,15.6167,Austria,AT
Krems an der Donau,48.4167,15.6167,Austria,AT
Wiener Neustadt,47.8167,16.2500,Austria,AT
Klosterneuburg,48.3042,16.3167,Austria,AT
Baden,48.0075,16.2344,Austria,AT
Amstetten,48.1167,14.8667,Austria,AT
Modling,48.0833,16.2667,Austria,AT
Traiskirchen,48.0167,16.3000,Austria,AT
Schwechat,48.1411,16.4786,Austria,AT
Stockerau,48.3833,16.2167,Austria,AT
Perchtoldsdorf,48.1167,16.2667,Austria,AT
Ternitz,47.7167,16.0333,Austria,AT
Korneuburg,48.3453,16.3331,Austria,AT
Neunkirchen,47.7333,16.0833,Austria,AT
Brunn am Gebirge,48.1000,16.2833,Austria,AT
Bad Voslau,47.9667,16.2167,Austria,AT
Gross-Enzersdorf,48.2000,16.5500,Austria,AT
Hollabrunn,48.5667,16.1000,Austria,AT
Mistelbach,48.5667,16.5667,Austria,AT
Ganserndorf,48.3406,16.7175,Austria,AT
Waidhofen an der Ybbs,47.9667,14.7667,Austria,AT
Gerasdorf bei Wien,48.2950,16.4675,Austria,AT
Ebreichsdorf,47.9667,16.4000,Austria,AT
Zwettl,48.6033,15.1689,Austria,AT
Strasshof an der Nordbahn,48.3194,16.6475,Austria,AT
Purkersdorf,48.2092,16.1792,Austria,AT
Wiener Neudorf,48.0833,16.3167,Austria,AT
Sankt Valentin,48.1667,14.5333,Austria,AT
Guntramsdorf,48.0500,16.3167,Austria,AT
Berndorf,47.9428,16.1036,Austria,AT
Maria Enzersdorf,48.1000,16.2833,Austria,AT
Deutsch-Wagram,48.3000,16.5667,Austria,AT
Linz,48.3058,14.2864,Austria,AT
Wels,48.1500,14.0167,Austria,AT
Steyr,48.0333,14.4167,Austria,AT
Leonding,48.2667,14.2500,Austria,AT
Traun,48.2217,14.2397,Austria,AT
Braunau am Inn,48.2583,13.0350,Austria,AT
Ansfelden,48.2083,14.2889,Austria,AT
Bad Ischl,47.7203,13.6333,Austria,AT
Marchtrenk,48.1917,14.1106,Austria,AT
Gmunden,47.9181,13.7994,Austria,AT
Vocklabruck,48.0086,13.6558,Austria,AT
Enns,48.2167,14.4750,Austria,AT
Ried im Innkreis,48.2100,13.4894,Austria,AT
Laakirchen,47.9828,13.8242,Austria,AT
Altmunster,47.9014,13.7514,Austria,AT
Sierning,48.0447,14.3100,Austria,AT
Attnang-Puchheim,48.0167,13.7197,Austria,AT
Engerwitzdorf,48.3397,14.4256,Austria,AT
Salzburg,47.8000,13.0450,Austria,AT
Hallein,47.6831,13.0969,Austria,AT
Saalfelden am Steinernen Meer,47.4269,12.8483,Austria,AT
Sankt Johann im Pongau,47.3500,13.2000,Austria,AT
Bischofshofen,47.4172,13.2194,Austria,AT
Zell am See,47.3167,12.8000,Austria,AT
Graz,47.0708,15.4386,Austria,AT
Leoben,47.3817,15.0972,Austria,AT
Kapfenberg,47.4333,15.2833,Austria,AT
Bruck an der Mur,47.4167,15.2667,Austria,AT
Feldbach,46.9500,15.8833,Austria,AT
Leibnitz,46.7831,15.5450,Austria,AT
Knittelfeld,47.2150,14.8294,Austria,AT
Deutschlandsberg,46.8161,15.2150,Austria,AT
Weiz,47.2169,15.6331,Austria,AT
Trofaiach,47.4260,15.0067,Austria,AT
Gleisdorf,47.1039,15.7083,Austria,AT
Judenburg,47.1725,14.6603,Austria,AT
Koflach,47.0667,15.0833,Austria,AT
Voitsberg,47.0333,15.1500,Austria,AT
Stainz,46.8833,15.2667,Austria,AT
Furstenfeld,47.0500,16.0833,Austria,AT
Innsbruck,47.2683,11.3933,Austria,AT
Kufstein,47.5833,12.1667,Austria,AT
Telfs,47.2833,11.0667,Austria,AT
Hall in Tirol,47.2833,11.5000,Austria,AT
Worgl,47.4833,12.0667,Austria,AT
Schwaz,47.3500,11.7000,Austria,AT
Lienz,46.8297,12.7697,Austria,AT
Imst,47.2394,10.7381,Austria,AT
Sankt Johann in Tirol,47.5225,12.4256,Austria,AT
Rum,47.2872,11.4581,Austria,AT
Lochau,47.5167,9.7500,Austria,AT
Dornbirn,47.4139,9.7444,Austria,AT
Bregenz,47.5050,9.7492,Austria,AT
Lustenau,47.4297,9.6597,Austria,AT
Hohenems,47.3667,9.6667,Austria,AT
Bludenz,47.1333,9.8167,Austria,AT
Hard,47.4667,9.6667,Austria,AT
Rankweil,47.2667,9.6500,Austria,AT
Gotzis,47.3331,9.6333,Austria,AT
Lauterach,47.4772,9.7314,Austria,AT
Vienna,48.2083,16.3725,Austria,AT
Xirdalan,40.4486,49.7564,Azerbaijan,AZ
Saray,40.5322,49.7164,Azerbaijan,AZ
Agcabadi,40.0528,47.4614,Azerbaijan,AZ
Hindarx,40.0700,47.2047,Azerbaijan,AZ
Quzanli,40.1600,47.1722,Azerbaijan,AZ
Agdam,39.9833,46.9167,Azerbaijan,AZ
Agdas,40.6500,47.4761,Azerbaijan,AZ
Agstafa,41.1189,45.4539,Azerbaijan,AZ
Agsu,40.5692,48.4008,Azerbaijan,AZ
Astara,38.4561,48.8786,Azerbaijan,AZ
Nehram,39.1122,45.4611,Azerbaijan,AZ
Babak,39.1519,45.4417,Azerbaijan,AZ
Baku,40.3953,49.8822,Azerbaijan,AZ
Qaracuxur,40.3967,49.9736,Azerbaijan,AZ
Hovsan,40.3744,50.0853,Azerbaijan,AZ
Bakixanov,40.4217,49.9644,Azerbaijan,AZ
M.A. Rasulzada,40.4344,49.8336,Azerbaijan,AZ
Bilacari,40.4314,49.8081,Azerbaijan,AZ
Mastaga,40.5328,50.0039,Azerbaijan,AZ
Binaqadi,40.4661,49.8278,Azerbaijan,AZ
Lokbatan,40.3272,49.7300,Azerbaijan,AZ
Buzovna,40.5161,50.1164,Azerbaijan,AZ
Amircan,40.4264,49.9836,Azerbaijan,AZ
Bina,40.4539,50.0764,Azerbaijan,AZ
Kesla,40.3978,49.8986,Azerbaijan,AZ
Mardakan,40.4922,50.1389,Azerbaijan,AZ
Zabrat,40.4872,49.9525,Azerbaijan,AZ
Sabuncu,40.4425,49.9481,Azerbaijan,AZ
Sahil,40.2200,49.5714,Azerbaijan,AZ
Bulbula,40.4342,49.9758,Azerbaijan,AZ
Yeni Suraxani,40.4311,50.0361,Azerbaijan,AZ
Suvalan,40.4889,50.2069,Azerbaijan,AZ
Qobustan,40.0842,49.4158,Azerbaijan,AZ
Pirallahi,40.4708,50.3217,Azerbaijan,AZ
Alat,39.9411,49.4061,Azerbaijan,AZ
Badamdar,40.3394,49.8039,Azerbaijan,AZ
Balaxani,40.4617,49.9200,Azerbaijan,AZ
Zira,40.3636,50.2903,Azerbaijan,AZ
Ahmadli,40.3781,49.9619,Azerbaijan,AZ
Turkan,40.3639,50.2150,Azerbaijan,AZ
Balakan,41.7258,46.4083,Azerbaijan,AZ
Beylaqan,39.7756,47.6186,Azerbaijan,AZ
Barda,40.3744,47.1267,Azerbaijan,AZ
Bilasuvar,39.4583,48.5450,Azerbaijan,AZ
Cabrayil,39.4000,47.0261,Azerbaijan,AZ
Calilabad,39.2089,48.4972,Azerbaijan,AZ
Goytapa,39.1167,48.5953,Azerbaijan,AZ
Culfa,38.9558,45.6308,Azerbaijan,AZ
Daskasan,40.5244,46.1069,Azerbaijan,AZ
Fuzuli,39.6003,47.1431,Azerbaijan,AZ
Gadabay,40.5656,45.8161,Azerbaijan,AZ
Ganca,40.6828,46.3606,Azerbaijan,AZ
Qizilhacili,40.5808,46.8503,Azerbaijan,AZ
Goranboy,40.6103,46.7897,Azerbaijan,AZ
Goycay,40.6531,47.7406,Azerbaijan,AZ
Goygol,40.5869,46.3158,Azerbaijan,AZ
Haciqabul,40.0433,48.9356,Azerbaijan,AZ
Imisli,39.8697,48.0600,Azerbaijan,AZ
Ismayilli,40.7900,48.1519,Azerbaijan,AZ
Kalbacar,40.1067,46.0383,Azerbaijan,AZ
Qivraq,39.3997,45.1131,Azerbaijan,AZ
Kurdamir,40.3383,48.1608,Azerbaijan,AZ
Lacin,39.6408,46.5469,Azerbaijan,AZ
Lerik,38.7753,48.4153,Azerbaijan,AZ
Lankaran,38.7536,48.8511,Azerbaijan,AZ
Liman,38.8733,48.8139,Azerbaijan,AZ
Boladi,38.8892,48.7656,Azerbaijan,AZ
Arkivan,39.0183,48.6500,Azerbaijan,AZ
Masalli,39.0342,48.6656,Azerbaijan,AZ
Mingacevir,40.7700,47.0489,Azerbaijan,AZ
Naftalan,40.5067,46.8250,Azerbaijan,AZ
Naxcivan,39.2161,45.4106,Azerbaijan,AZ
Aliabad,39.2267,45.3983,Azerbaijan,AZ
Neftcala,39.3586,49.2469,Azerbaijan,AZ
Oguz,41.0708,47.4583,Azerbaijan,AZ
Ordubad,38.9081,46.0278,Azerbaijan,AZ
Qax,41.4225,46.9242,Azerbaijan,AZ
Qazax,41.0933,45.3661,Azerbaijan,AZ
Qazmalar,40.9814,47.8458,Azerbaijan,AZ
Vandam,40.9447,47.9411,Azerbaijan,AZ
Qabala,40.9825,47.8491,Azerbaijan,AZ
Qobustan,40.5367,48.9328,Azerbaijan,AZ
Quba,41.3597,48.5125,Azerbaijan,AZ
Qubadli,39.3439,46.5797,Azerbaijan,AZ
Qusar,41.4264,48.4356,Azerbaijan,AZ
Saatli,39.9311,48.3697,Azerbaijan,AZ
Sabirabad,40.0128,48.4789,Azerbaijan,AZ
Davaci,41.2012,48.9871,Azerbaijan,AZ
Sahbuz,39.4072,45.5739,Azerbaijan,AZ
Satrovka,39.9319,48.9203,Azerbaijan,AZ
Salyan,39.5950,48.9792,Azerbaijan,AZ
Samaxi,40.6303,48.6414,Azerbaijan,AZ
Samux,40.7700,46.4111,Azerbaijan,AZ
Sadarak,39.7175,44.8764,Azerbaijan,AZ
Heydarabad,39.7203,44.8531,Azerbaijan,AZ
Saki,41.2000,47.1667,Azerbaijan,AZ
Bas Goynuk,41.3228,47.1133,Azerbaijan,AZ
Samkir,40.8297,46.0189,Azerbaijan,AZ
Sarur,39.5544,44.9826,Azerbaijan,AZ
Sirvan,39.9323,48.9203,Azerbaijan,AZ
Siyazan,41.0761,49.1139,Azerbaijan,AZ
Sumqayit,40.5897,49.6686,Azerbaijan,AZ
Haci Zeynalabdin,40.6233,49.5586,Azerbaijan,AZ
Corat,40.5725,49.7064,Azerbaijan,AZ
Susa,39.7583,46.7483,Azerbaijan,AZ
Tartar,40.3450,46.9289,Azerbaijan,AZ
Tovuz,40.9922,45.6289,Azerbaijan,AZ
Qovlar,40.9419,45.7358,Azerbaijan,AZ
Asagi Ayibli,40.9347,45.8261,Azerbaijan,AZ
Asagi Quscu,40.9533,45.6792,Azerbaijan,AZ
Agdam,40.9053,45.5564,Azerbaijan,AZ
Qazyan,40.4425,47.6767,Azerbaijan,AZ
Ucar,40.5183,47.6542,Azerbaijan,AZ
Xacmaz,41.4708,48.8097,Azerbaijan,AZ
Xudat,41.6281,48.6828,Azerbaijan,AZ
Xankandi,39.8153,46.7519,Azerbaijan,AZ
Xizi,40.9078,49.0733,Azerbaijan,AZ
Xocali,39.9111,46.7892,Azerbaijan,AZ
Xocavand,39.7953,47.1131,Azerbaijan,AZ
Yardimli,38.9206,48.2372,Azerbaijan,AZ
Yevlax,40.6172,47.1500,Azerbaijan,AZ
Zaqatala,41.6336,46.6433,Azerbaijan,AZ
Aliabad,41.4783,46.6175,Azerbaijan,AZ
Zardab,40.2183,47.7083,Azerbaijan,AZ
Lucaya,26.5117,-78.6431,"Bahamas, The",BS
Freeport City,26.5286,-78.6967,"Bahamas, The",BS
West End,26.6867,-78.9750,"Bahamas, The",BS
Nassau,25.0781,-77.3386,"Bahamas, The",BS
Manama,26.2250,50.5775,Bahrain,BH
Jidd Hafs,26.2190,50.5380,Bahrain,BH
Sitrah,26.1200,50.6500,Bahrain,BH
Madinat `Isa,26.1736,50.5478,Bahrain,BH
Al Muharraq,26.2500,50.6167,Bahrain,BH
Madinat Hamad,26.1128,50.5139,Bahrain,BH
Al Hamalah,26.1497,50.4653,Bahrain,BH
Ad Diraz,26.2186,50.4756,Bahrain,BH
Al Malikiyah,26.1008,50.4878,Bahrain,BH
Karranah,26.2306,50.5108,Bahrain,BH
Barishal,22.7000,90.3667,Bangladesh,BD
Bhandaria,22.4883,90.0733,Bangladesh,BD
Bhola,22.6833,90.6500,Bangladesh,BD
Kaukhali,22.6333,90.0667,Bangladesh,BD
Pirojpur,22.5780,89.9680,Bangladesh,BD
Barguna,22.1500,90.1167,Bangladesh,BD
Nalchiti,22.6350,90.2700,Bangladesh,BD
Mathba,22.3000,89.9500,Bangladesh,BD
Daulatkhan,22.6000,90.7472,Bangladesh,BD
Amtali,22.1370,90.2280,Bangladesh,BD
Baisari,22.7900,90.1313,Bangladesh,BD
Chattogram,22.3350,91.8325,Bangladesh,BD
Chauddagram,23.2283,91.3133,Bangladesh,BD
Barura,23.3750,91.0583,Bangladesh,BD
Comilla,23.4500,91.2000,Bangladesh,BD
Brahmanbaria,23.9656,91.1080,Bangladesh,BD
Feni,23.0183,91.4100,Bangladesh,BD
Companiganj,22.8750,91.2833,Bangladesh,BD
Banchpar,23.2000,90.8000,Bangladesh,BD
Cox's Bazar,21.4272,92.0050,Bangladesh,BD
Brahmanpara,23.6167,91.1083,Bangladesh,BD
Maijdi,22.8333,91.1000,Bangladesh,BD
Fulgazi,23.1333,91.4333,Bangladesh,BD
Lakshmipur,22.9400,90.8330,Bangladesh,BD
Panchari Bazar,23.2900,91.9000,Bangladesh,BD
Nakhyaungcharipara,21.4167,92.1833,Bangladesh,BD
Chhagalnaiya,23.0395,91.5146,Bangladesh,BD
Bharella,23.5506,91.0566,Bangladesh,BD
Dohazari,22.1628,92.0728,Bangladesh,BD
Sitakund,22.6200,91.6600,Bangladesh,BD
Chandanais,22.2000,92.0083,Bangladesh,BD
Daganbhuiya,22.9127,91.3181,Bangladesh,BD
Lohagara,22.0181,92.0974,Bangladesh,BD
Majidpur,23.5796,90.7689,Bangladesh,BD
Parsuram,23.2135,91.4447,Bangladesh,BD
Lakshmicharipara,22.7900,91.9000,Bangladesh,BD
Shahbazpur,24.0531,91.1719,Bangladesh,BD
Sonagazi,22.8492,91.3928,Bangladesh,BD
Jagatpur,23.6048,90.7628,Bangladesh,BD
Faradabad,23.7445,90.8772,Bangladesh,BD
Fatikchari,22.6878,91.7811,Bangladesh,BD
Latifpur,22.3777,91.7639,Bangladesh,BD
Dhaka,23.7639,90.3889,Bangladesh,BD
Gazipura,23.9889,90.3750,Bangladesh,BD
Narayanganj,23.6200,90.5000,Bangladesh,BD
Tangail,24.2644,89.9181,Bangladesh,BD
Savar,23.8500,90.2600,Bangladesh,BD
Tungi,23.9000,90.4100,Bangladesh,BD
Siddhirganj,23.6833,90.5167,Bangladesh,BD
Narsingdi,23.9231,90.7122,Bangladesh,BD
Sripur,24.2011,90.4843,Bangladesh,BD
Faridpur,23.6020,89.8330,Bangladesh,BD
Goalundo Ghat,23.7333,89.7617,Bangladesh,BD
Manikganj,23.8500,90.0167,Bangladesh,BD
Arankhola,24.6610,90.0884,Bangladesh,BD
Elenga,24.3386,89.9219,Bangladesh,BD
Gopalganj,23.0100,89.8200,Bangladesh,BD
Gopalpur,24.5583,89.9167,Bangladesh,BD
Kishmat Dhanbari,24.6167,90.0250,Bangladesh,BD
Hatibanda,24.2105,90.1492,Bangladesh,BD
Nagdha Simla,24.6143,89.9166,Bangladesh,BD
Sakhipur,24.3167,90.1750,Bangladesh,BD
Mirzapur,24.1083,90.0917,Bangladesh,BD
Duptiair,23.9910,89.7982,Bangladesh,BD
Latifpur,24.1181,90.1478,Bangladesh,BD
Dhubaria,24.0044,89.8484,Bangladesh,BD
Khulna,22.8167,89.5500,Bangladesh,BD
Kushtia,23.9101,89.1231,Bangladesh,BD
Jhenida,23.5417,89.1833,Bangladesh,BD
Jessore,23.1704,89.2000,Bangladesh,BD
Chuadanga,23.6440,88.8556,Bangladesh,BD
Satkhira,22.7188,89.0713,Bangladesh,BD
Patuakhali,22.3542,90.3181,Bangladesh,BD
Jalakati,22.6386,90.1993,Bangladesh,BD
Char Fasson,22.1861,90.7597,Bangladesh,BD
Benapol,23.0419,88.8956,Bangladesh,BD
Harinakunda,23.6500,89.0333,Bangladesh,BD
Mymensingh,24.7539,90.4031,Bangladesh,BD
Jamalpur,24.9004,89.9500,Bangladesh,BD
Netrakona,24.8819,90.7275,Bangladesh,BD
Muktagacha,24.7662,90.2562,Bangladesh,BD
Phulpur,24.9550,90.3573,Bangladesh,BD
Rajshahi,24.3667,88.6000,Bangladesh,BD
Sirajganj,24.4500,89.7500,Bangladesh,BD
Bogra,24.8500,89.3667,Bangladesh,BD
Nazipur,25.0415,88.7605,Bangladesh,BD
Pabna,24.0167,89.2167,Bangladesh,BD
Naogaon,24.8000,88.9333,Bangladesh,BD
Nawabganj,24.6000,88.2667,Bangladesh,BD
Raharpur,24.8194,88.3250,Bangladesh,BD
Sherpur,24.6650,89.4190,Bangladesh,BD
Kalihati,24.3833,89.9833,Bangladesh,BD
Mundamala,24.6081,88.4728,Bangladesh,BD
Rangapukur,25.5600,89.2500,Bangladesh,BD
Rangpur,25.7500,89.2444,Bangladesh,BD
Saidpur,25.8004,89.0000,Bangladesh,BD
Dinajpur,25.6167,88.6500,Bangladesh,BD
Saidpur,25.7781,88.8975,Bangladesh,BD
Lalmanirhat,25.9167,89.4500,Bangladesh,BD
Gaibandha,25.3290,89.5415,Bangladesh,BD
Sylhet,24.9000,91.8667,Bangladesh,BD
Habiganj,24.3808,91.4144,Bangladesh,BD
Sunamganj,25.0710,91.4035,Bangladesh,BD
Maulavi Bazar,24.4808,91.7644,Bangladesh,BD
Bridgetown,13.0975,-59.6167,Barbados,BB
Brest,52.1347,23.6569,Belarus,BY
Baranavichy,53.1333,26.0167,Belarus,BY
Pinsk,52.1153,26.1031,Belarus,BY
Kobryn,52.2167,24.3667,Belarus,BY
Byaroza,52.5500,24.9667,Belarus,BY
Luninyets,52.2500,26.8000,Belarus,BY
Ivatsevichy,52.7167,25.3333,Belarus,BY
Pruzhany,52.5567,24.4644,Belarus,BY
Ivanava,52.1333,25.5500,Belarus,BY
Drahichyn,52.1833,25.1500,Belarus,BY
Zhabinka,52.2006,24.0233,Belarus,BY
Stolin,51.8833,26.8500,Belarus,BY
Hantsavichy,52.7500,26.4333,Belarus,BY
Malaryta,51.7833,24.0833,Belarus,BY
Mikashevichy,52.2203,27.4736,Belarus,BY
Byelaazyorsk,52.4500,25.1667,Belarus,BY
Lyakhavichy,53.0333,26.2667,Belarus,BY
Homyel',52.4453,30.9842,Belarus,BY
Mazyr,52.0500,29.2500,Belarus,BY
Zhlobin,52.9000,30.0333,Belarus,BY
Rechytsa,52.3639,30.3947,Belarus,BY
Svyetlahorsk,52.6333,29.7333,Belarus,BY
Kalinkavichy,52.1250,29.3333,Belarus,BY
Rahachow,53.1000,30.0500,Belarus,BY
Dobrush,52.4167,31.3167,Belarus,BY
Zhytkavichy,52.2333,27.8667,Belarus,BY
Khoyniki,51.8892,29.9644,Belarus,BY
Lyelchytsy,51.7894,28.3214,Belarus,BY
Pyetrykaw,52.1333,28.5000,Belarus,BY
Chachersk,52.9161,30.9161,Belarus,BY
Yelsk,51.8167,29.1500,Belarus,BY
Vyetka,52.5667,31.1833,Belarus,BY
Buda-Kashalyova,52.7167,30.5667,Belarus,BY
Hrodna,53.6667,23.8333,Belarus,BY
Lida,53.8956,25.2958,Belarus,BY
Slonim,53.0833,25.3167,Belarus,BY
Vawkavysk,53.1667,24.4667,Belarus,BY
Smarhon,54.4836,26.4000,Belarus,BY
Navahrudak,53.5833,25.8167,Belarus,BY
Ashmyany,54.4250,25.9375,Belarus,BY
Shchuchyn,53.6167,24.7333,Belarus,BY
Astravyets,54.6136,25.9553,Belarus,BY
Masty,53.4170,24.5500,Belarus,BY
Skidal',53.5861,24.2519,Belarus,BY
Byarozawka,53.7167,25.5000,Belarus,BY
Mahilyow,53.9167,30.3500,Belarus,BY
Babruysk,53.1500,29.2333,Belarus,BY
Asipovichy,53.2933,28.4756,Belarus,BY
Horki,54.2667,30.9833,Belarus,BY
Krychaw,53.7194,31.7139,Belarus,BY
Bykhaw,53.5167,30.2500,Belarus,BY
Klimavichy,53.6167,31.9500,Belarus,BY
Kastsyukovichy,53.3333,32.0500,Belarus,BY
Shklow,54.2236,30.2864,Belarus,BY
Mstsislaw,54.0167,31.7167,Belarus,BY
Chavusy,53.8075,30.9714,Belarus,BY
Byalynichy,53.9956,29.7094,Belarus,BY
Minsk,53.9000,27.5667,Belarus,BY
Horad Barysaw,54.2279,28.5050,Belarus,BY
Salihorsk,52.8000,27.5333,Belarus,BY
Maladzyechna,54.3208,26.8572,Belarus,BY
Horad Zhodzina,54.1000,28.3500,Belarus,BY
Slutsk,53.0333,27.5667,Belarus,BY
Dzyarzhynsk,53.6833,27.1333,Belarus,BY
Vilyeyka,54.4980,26.9260,Belarus,BY
Horad Smalyavichy,54.1000,28.0667,Belarus,BY
Mar''ina Horka,53.5072,28.1522,Belarus,BY
Fanipal',53.7500,27.3333,Belarus,BY
Stowbtsy,53.4833,26.7333,Belarus,BY
Zaslawye,54.0083,27.2847,Belarus,BY
Nyasvizh,53.2167,26.6667,Belarus,BY
Lahoysk,54.2000,27.8500,Belarus,BY
Byerazino,53.8333,28.9833,Belarus,BY
Lyuban,52.7819,28.0525,Belarus,BY
Klyetsk,53.0636,26.6372,Belarus,BY
Staryya Darohi,53.0394,28.2650,Belarus,BY
Uzda,53.4661,27.2244,Belarus,BY
Chervyen,53.7078,28.4322,Belarus,BY
Machulishchy,53.7814,27.5958,Belarus,BY
Kapyl,53.1500,27.0917,Belarus,BY
Valozhyn,54.0833,26.5167,Belarus,BY
Vitsyebsk,55.1917,30.2056,Belarus,BY
Orsha,54.5092,30.4258,Belarus,BY
Navapolatsk,55.5333,28.6500,Belarus,BY
Polatsk,55.4833,28.8000,Belarus,BY
Pastavy,55.1167,26.8333,Belarus,BY
Hlybokaye,55.1333,27.6833,Belarus,BY
Lyepyel,54.8750,28.6944,Belarus,BY
Novalukoml',54.6569,29.1500,Belarus,BY
Haradok,55.4667,30.0000,Belarus,BY
Baran,54.4833,30.3333,Belarus,BY
Talachyn,54.4167,29.7000,Belarus,BY
Braslaw,55.6391,27.0318,Belarus,BY
Brussels,50.8467,4.3525,Belgium,BE
Schaarbeek,50.8675,4.3736,Belgium,BE
Anderlecht,50.8333,4.3333,Belgium,BE
Laeken,50.8778,4.3558,Belgium,BE
Forest,50.8131,4.3247,Belgium,BE
Jette,50.8667,4.3333,Belgium,BE
Etterbeek,50.8333,4.3833,Belgium,BE
Evere,50.8667,4.4000,Belgium,BE
Sint-Joost-ten-Node,50.8500,4.3833,Belgium,BE
Ganshoren,50.8667,4.3167,Belgium,BE
Koekelberg,50.8667,4.3333,Belgium,BE
Neder-Over-Heembeek,50.9000,4.3833,Belgium,BE
Strombeek-Bever,50.9100,4.3500,Belgium,BE
Antwerp,51.2178,4.4003,Belgium,BE
Gent,51.0536,3.7253,Belgium,BE
Bruges,51.2089,3.2242,Belgium,BE
Moortebeek,50.8547,4.3386,Belgium,BE
Aalst,50.9383,4.0392,Belgium,BE
Mechelen,51.0278,4.4806,Belgium,BE
Deurne,51.2247,4.4625,Belgium,BE
Sint-Niklaas,51.1667,4.1333,Belgium,BE
Kortrijk,50.8275,3.2658,Belgium,BE
Hasselt,50.9300,5.3375,Belgium,BE
Ostend,51.2258,2.9194,Belgium,BE
Genk,50.9667,5.5000,Belgium,BE
Roeselare,50.9333,3.1167,Belgium,BE
Beveren,51.2000,4.2500,Belgium,BE
Beringen,51.0489,5.2261,Belgium,BE
Borgerhout,51.2117,4.4407,Belgium,BE
Dendermonde,51.0333,4.1000,Belgium,BE
Merksem,51.2428,4.4414,Belgium,BE
Deinze,50.9833,3.5333,Belgium,BE
Turnhout,51.3167,4.9500,Belgium,BE
Vilvoorde,50.9333,4.4167,Belgium,BE
Berchem,51.1833,4.4167,Belgium,BE
Heist-op-den-Berg,51.0833,4.7167,Belgium,BE
Lokeren,51.1000,3.9833,Belgium,BE
Dilbeek,50.8500,4.2667,Belgium,BE
Hoboken,51.1667,4.3667,Belgium,BE
Geel,51.1667,5.0000,Belgium,BE
Sint-Truiden,50.8000,5.1833,Belgium,BE
Ninove,50.8333,4.0167,Belgium,BE
Halle,50.7361,4.2372,Belgium,BE
Waregem,50.8833,3.4167,Belgium,BE
Wilrijk,51.1667,4.3833,Belgium,BE
Brasschaat,51.3000,4.5000,Belgium,BE
Mechelen-aan-de-Maas,50.9667,5.7000,Belgium,BE
Grimbergen,50.9333,4.3833,Belgium,BE
Mol,51.1833,5.1167,Belgium,BE
Lierre,51.1333,4.5667,Belgium,BE
Evergem,51.1167,3.7000,Belgium,BE
Zaventem,50.8667,4.4667,Belgium,BE
Ieper,50.8508,2.8850,Belgium,BE
Tienen,50.8000,4.9333,Belgium,BE
Schoten,51.2500,4.5000,Belgium,BE
Lommel,51.2333,5.3000,Belgium,BE
Sint-Pieters-Leeuw,50.7833,4.2500,Belgium,BE
Menen,50.8000,3.1167,Belgium,BE
Geraardsbergen,50.7667,3.8667,Belgium,BE
Knokke-Heist,51.3333,3.2833,Belgium,BE
Asse,50.9000,4.2000,Belgium,BE
Bilzen,50.8667,5.5167,Belgium,BE
Sint-Amandsberg,51.0539,3.7492,Belgium,BE
Oudenaarde,50.8500,3.6000,Belgium,BE
Wevelgem,50.8000,3.1667,Belgium,BE
Tongeren,50.7833,5.4667,Belgium,BE
Kessel-Lo,50.8853,4.7358,Belgium,BE
Aarschot,50.9833,4.8333,Belgium,BE
Temse,51.1167,4.2000,Belgium,BE
Brecht,51.3500,4.6333,Belgium,BE
Izegem,50.9167,3.2000,Belgium,BE
Herentals,51.1833,4.8333,Belgium,BE
Harelbeke,50.8500,3.3000,Belgium,BE
Kapellen,51.3167,4.4333,Belgium,BE
Ronse,50.7500,3.6000,Belgium,BE
Zottegem,50.8667,3.8000,Belgium,BE
Willebroek,51.0667,4.3667,Belgium,BE
Mortsel,51.1667,4.4667,Belgium,BE
Lanaken,50.8833,5.6500,Belgium,BE
Wetteren,51.0000,3.8833,Belgium,BE
Maaseik,51.1000,5.8000,Belgium,BE
Overijse,50.7667,4.5333,Belgium,BE
Beersel,50.7667,4.3000,Belgium,BE
Westerlo,51.0833,4.9167,Belgium,BE
Hamme,51.0983,4.1369,Belgium,BE
Merelbeke,51.0000,3.7500,Belgium,BE
Zwevegem,50.8000,3.3333,Belgium,BE
Diest,50.9833,5.0500,Belgium,BE
Maldegem,51.2000,3.4333,Belgium,BE
Oostkamp,51.1500,3.2333,Belgium,BE
Heverlee,50.8600,4.6897,Belgium,BE
Zemst,50.9722,4.4222,Belgium,BE
Scherpenheuvel,51.0000,4.9667,Belgium,BE
Nijlen,51.1667,4.6500,Belgium,BE
Ekeren,51.2833,4.4167,Belgium,BE
Balen,51.1667,5.1500,Belgium,BE
Zedelgem,51.1333,3.1333,Belgium,BE
Lochristi,51.1000,3.8333,Belgium,BE
Edegem,51.1500,4.4500,Belgium,BE
Tervuren,50.8167,4.5000,Belgium,BE
Koksijde,51.1000,2.6500,Belgium,BE
Zoersel,51.2667,4.7000,Belgium,BE
Herent,50.9000,4.6667,Belgium,BE
Hoogstraten,51.4000,4.7667,Belgium,BE
Bornem,51.1000,4.2333,Belgium,BE
Zonhoven,50.9833,5.3500,Belgium,BE
Kontich,51.1333,4.4500,Belgium,BE
Zele,51.0667,4.0333,Belgium,BE
Eeklo,51.1833,3.5500,Belgium,BE
Sint-Katelijne-Waver,51.0667,4.5333,Belgium,BE
Wuustwezel,51.3833,4.6000,Belgium,BE
Torhout,51.0500,3.1000,Belgium,BE
Tielt,51.0000,3.3167,Belgium,BE
Blankenberge,51.3000,3.1167,Belgium,BE
Kortenberg,50.8833,4.5333,Belgium,BE
Denderleeuw,50.8833,4.0667,Belgium,BE
Sint-Andries,51.1972,3.1803,Belgium,BE
Poperinge,50.8500,2.7333,Belgium,BE
Assebroek,51.1964,3.2536,Belgium,BE
Schilde,51.2333,4.5667,Belgium,BE
Middelkerke,51.1833,2.8167,Belgium,BE
Sint-Gillis-Waas,51.2167,4.1167,Belgium,BE
Lebbeke,51.0000,4.1167,Belgium,BE
Ranst,51.2000,4.5500,Belgium,BE
Meise,50.9333,4.3333,Belgium,BE
Essen,51.4667,4.4667,Belgium,BE
Diepenbeek,50.9000,5.4000,Belgium,BE
Wervik,50.7833,3.0333,Belgium,BE
Zwijndrecht,51.2167,4.3333,Belgium,BE
Kasterlee,51.2500,4.9500,Belgium,BE
Kalmthout,51.3833,4.4667,Belgium,BE
Lede,50.9667,3.9833,Belgium,BE
Londerzeel,51.0000,4.3000,Belgium,BE
Boom,51.0833,4.3667,Belgium,BE
Stabroek,51.3333,4.3667,Belgium,BE
Tessenderlo,51.0667,5.0833,Belgium,BE
Haaltert,50.9000,4.0000,Belgium,BE
Stekene,51.2000,4.0333,Belgium,BE
Sint-Genesius-Rode,50.7500,4.3500,Belgium,BE
Beerse,51.3167,4.8667,Belgium,BE
Destelbergen,51.0500,3.8000,Belgium,BE
Bredene,51.2333,2.9667,Belgium,BE
Herzele,50.8833,3.8833,Belgium,BE
Duffel,51.1000,4.5167,Belgium,BE
Putte,51.0500,4.6333,Belgium,BE
Puurs,51.0761,4.2803,Belgium,BE
Mariakerke,51.0728,3.6761,Belgium,BE
Neerpelt,51.2333,5.4333,Belgium,BE
Wondelgem,51.0889,3.7131,Belgium,BE
Diksmuide,51.0333,2.8650,Belgium,BE
Rotselaar,50.9500,4.7167,Belgium,BE
Riemst,50.8000,5.6000,Belgium,BE
Kruibeke,51.1667,4.3000,Belgium,BE
Lille,51.2333,4.8333,Belgium,BE
Ledeberg,51.0375,3.7425,Belgium,BE
Peer,51.1333,5.4667,Belgium,BE
Wemmel,50.9078,4.3067,Belgium,BE
Bree,51.1333,5.6000,Belgium,BE
Merchtem,50.9667,4.2333,Belgium,BE
Landen,50.7500,5.0833,Belgium,BE
Gentbrugge,51.0314,3.7642,Belgium,BE
Sint-Kruis,51.2139,3.2503,Belgium,BE
Zulte,50.9167,3.4333,Belgium,BE
Beernem,51.1333,3.3333,Belgium,BE
Leopoldsburg,51.1192,5.2608,Belgium,BE
Bissegem,50.8167,3.2167,Belgium,BE
Ternat,50.8667,4.1833,Belgium,BE
Overpelt,51.2167,5.4167,Belgium,BE
Machelen,50.9167,4.4333,Belgium,BE
Rumst,51.0833,4.4167,Belgium,BE
Bonheiden,51.0333,4.5333,Belgium,BE
Ravels,51.3667,5.0000,Belgium,BE
Berlare,51.0250,4.0025,Belgium,BE
Tremelo,50.9833,4.7000,Belgium,BE
Lummen,50.9833,5.2000,Belgium,BE
Anzegem,50.8333,3.4667,Belgium,BE
Herselt,51.0500,4.8833,Belgium,BE
Buggenhout,51.0000,4.2000,Belgium,BE
Haacht,50.9833,4.6333,Belgium,BE
Aartselaar,51.1333,4.3833,Belgium,BE
Lubbeek,50.8817,4.8414,Belgium,BE
Opwijk,50.9667,4.1833,Belgium,BE
Wingene,51.0500,3.2667,Belgium,BE
Assenede,51.2333,3.7500,Belgium,BE
Oostakker,51.1003,3.7633,Belgium,BE
Wezembeek-Oppem,50.8500,4.4833,Belgium,BE
Oud-Turnhout,51.3167,4.9833,Belgium,BE
Ichtegem,51.0928,3.0106,Belgium,BE
Jabbeke,51.1500,3.2333,Belgium,BE
Kraainem,50.8667,4.4667,Belgium,BE
Oosterzele,50.9500,3.8000,Belgium,BE
Boechout,51.1500,4.4833,Belgium,BE
Kuurne,50.8500,3.2833,Belgium,BE
Arendonk,51.3167,5.0833,Belgium,BE
Liedekerke,50.8667,4.0833,Belgium,BE
Bocholt,51.1667,5.5833,Belgium,BE
Drongen,51.0503,3.6628,Belgium,BE
Zandhoven,51.2167,4.6500,Belgium,BE
Sint-Gillis-bij-Dendermonde,51.0189,4.1058,Belgium,BE
Wommelgem,51.2000,4.5167,Belgium,BE
Gavere,50.9333,3.6667,Belgium,BE
Keerbergen,51.0000,4.6167,Belgium,BE
Zelzate,51.2000,3.8167,Belgium,BE
Herk-de-Stad,50.9333,5.1667,Belgium,BE
De Haan,51.2667,3.0333,Belgium,BE
Kortemark,51.0333,3.0333,Belgium,BE
Olen,51.1500,4.8500,Belgium,BE
Laarne,51.0167,3.8500,Belgium,BE
Zonnebeke,50.8667,2.9833,Belgium,BE
Sint-Michiels,51.1886,3.2117,Belgium,BE
Boortmeerbeek,50.9833,4.5667,Belgium,BE
Veurne,51.0667,2.6500,Belgium,BE
Kinrooi,51.1500,5.7500,Belgium,BE
Nevele,51.0333,3.5500,Belgium,BE
Gistel,51.1500,2.9667,Belgium,BE
Steenokkerzeel,50.9167,4.5167,Belgium,BE
Paal,51.0392,5.1728,Belgium,BE
Rijkevorsel,51.3500,4.7667,Belgium,BE
Kampenhout,50.9500,4.5500,Belgium,BE
Deerlijk,50.8500,3.3500,Belgium,BE
Alken,50.8761,5.3078,Belgium,BE
Berlaar,51.1167,4.6500,Belgium,BE
Hemiksem,51.1500,4.3500,Belgium,BE
Wichelen,51.0000,3.9667,Belgium,BE
Nazareth,50.9667,3.6000,Belgium,BE
Melle,51.0000,3.8000,Belgium,BE
Nieuwpoort,51.1167,2.7500,Belgium,BE
Staden,50.9833,3.0167,Belgium,BE
Retie,51.2667,5.0667,Belgium,BE
Hoeilaart,50.7667,4.4667,Belgium,BE
Grobbendonk,51.2000,4.7167,Belgium,BE
Vosselaar,51.3167,4.8833,Belgium,BE
De Panne,51.1000,2.5833,Belgium,BE
Oud-Heverlee,50.8333,4.6667,Belgium,BE
Melsele,51.2209,4.2815,Belgium,BE
Moorslede,50.8833,3.0667,Belgium,BE
De Pinte,51.0000,3.6500,Belgium,BE
Damme,51.2500,3.2667,Belgium,BE
Borsbeek,51.2000,4.4833,Belgium,BE
Ingelmunster,50.9167,3.2500,Belgium,BE
Meulebeke,50.9500,3.2833,Belgium,BE
Waasmunster,51.1097,4.0847,Belgium,BE
Borgloon,50.8000,5.3333,Belgium,BE
Niel,51.1167,4.3333,Belgium,BE
Heule,50.8333,3.2333,Belgium,BE
Ertvelde,51.1783,3.7447,Belgium,BE
Hulshout,51.0833,4.7833,Belgium,BE
Opglabbeek,51.0500,5.5833,Belgium,BE
Meerhout,51.1333,5.0833,Belgium,BE
Sint-Lievens-Houtem,50.9167,3.8667,Belgium,BE
Avelgem,50.7667,3.4333,Belgium,BE
Begijnendijk,51.0167,4.7833,Belgium,BE
Houthulst,50.9833,2.9500,Belgium,BE
Bierbeek,50.8333,4.7667,Belgium,BE
Bertem,50.8500,4.6167,Belgium,BE
Hooglede,50.9833,3.0833,Belgium,BE
Holsbeek,50.9167,4.7667,Belgium,BE
Wilsele,50.9000,4.7000,Belgium,BE
Huldenberg,50.7833,4.5833,Belgium,BE
Oudenburg,51.1833,3.0000,Belgium,BE
Ledegem,50.8500,3.1167,Belgium,BE
Wijnegem,51.2333,4.5333,Belgium,BE
Lovendegem,51.1000,3.6000,Belgium,BE
Hoeselt,50.8500,5.4833,Belgium,BE
Dessel,51.2333,5.1167,Belgium,BE
Wielsbeke,50.9000,3.3667,Belgium,BE
Halen,50.9481,5.1144,Belgium,BE
Kapelle-op-den-Bos,51.0167,4.3667,Belgium,BE
Gooik,50.8000,4.1167,Belgium,BE
Herenthout,51.1500,4.7667,Belgium,BE
Sint-Martens-Lennik,50.8000,4.1500,Belgium,BE
Ardooie,50.9667,3.1833,Belgium,BE
Lichtervelde,51.0333,3.1333,Belgium,BE
Koekelare,51.0833,2.9667,Belgium,BE
Galmaarden,50.7500,3.9900,Belgium,BE
Heusden,51.0281,3.8000,Belgium,BE
Sint-Job-in-'t-Goor,51.3000,4.5667,Belgium,BE
Lint,51.1167,4.4833,Belgium,BE
Merksplas,51.3667,4.8667,Belgium,BE
Charleroi,50.4000,4.4333,Belgium,BE
Liege,50.6397,5.5706,Belgium,BE
Namur,50.4667,4.8667,Belgium,BE
Mons,50.4550,3.9520,Belgium,BE
La Louviere,50.4667,4.1833,Belgium,BE
Tournai,50.6056,3.3881,Belgium,BE
Seraing,50.5833,5.5000,Belgium,BE
Mouscron,50.7333,3.2167,Belgium,BE
Verviers,50.5833,5.8500,Belgium,BE
Herstal,50.6667,5.6333,Belgium,BE
Braine-l'Alleud,50.6833,4.3667,Belgium,BE
Chatelet,50.4000,4.5167,Belgium,BE
Wavre,50.7167,4.6000,Belgium,BE
Binche,50.4000,4.1667,Belgium,BE
Courcelles,50.4667,4.3667,Belgium,BE
Arlon,49.6833,5.8167,Belgium,BE
Waterloo,50.7175,4.3979,Belgium,BE
Ath,50.6167,3.7667,Belgium,BE
Nivelles,50.5833,4.3167,Belgium,BE
Ans,50.6667,5.5167,Belgium,BE
Soignies,50.5667,4.0667,Belgium,BE
Andenne,50.4833,5.1000,Belgium,BE
Flemalle-Haute,50.6000,5.4667,Belgium,BE
Gembloux,50.5667,4.6833,Belgium,BE
Tubize,50.6930,4.2047,Belgium,BE
Oupeye,50.7000,5.6500,Belgium,BE
Saint-Nicolas,50.6333,5.5333,Belgium,BE
Saint-Ghislain,50.4500,3.8167,Belgium,BE
Manage,50.5000,4.2333,Belgium,BE
Marcinelle,50.4000,4.4486,Belgium,BE
Fleurus,50.4833,4.5333,Belgium,BE
Rixensart,50.7167,4.5333,Belgium,BE
Braine-le-Comte,50.6000,4.1333,Belgium,BE
Frameries,50.4000,3.9000,Belgium,BE
Huy,50.5167,5.2333,Belgium,BE
Chaudfontaine,50.5833,5.6333,Belgium,BE
Colfontaine,50.4167,3.8500,Belgium,BE
Boussu,50.4333,3.8000,Belgium,BE
Eupen,50.6333,6.0333,Belgium,BE
Morlanwelz-Mariemont,50.4500,4.2333,Belgium,BE
Quaregnon,50.4333,3.8500,Belgium,BE
Lessines,50.7167,3.8333,Belgium,BE
Walcourt,50.2500,4.4167,Belgium,BE
Fontaine-l'Eveque,50.4167,4.3167,Belgium,BE
Vise,50.7333,5.7000,Belgium,BE
Herve,50.6333,5.8000,Belgium,BE
Marche-en-Famenne,50.2167,5.3333,Belgium,BE
Pont-a-Celles,50.5000,4.3500,Belgium,BE
Peruwelz,50.5167,3.5833,Belgium,BE
Aubange,49.5667,5.8050,Belgium,BE
Soumagne,50.6167,5.7500,Belgium,BE
Dour,50.3979,3.7807,Belgium,BE
Fleron,50.6167,5.6833,Belgium,BE
Ciney,50.3000,5.1000,Belgium,BE
Hannut,50.6667,5.0833,Belgium,BE
Eghezee,50.5833,4.9167,Belgium,BE
Bastogne,50.0042,5.7200,Belgium,BE
Dison,50.6167,5.8500,Belgium,BE
Genappe,50.6000,4.4500,Belgium,BE
Waremme,50.6975,5.2556,Belgium,BE
Chapelle-lez-Herlaimont,50.4667,4.2833,Belgium,BE
Thuin,50.3333,4.2833,Belgium,BE
Sprimont,50.5000,5.6667,Belgium,BE
Amay,50.5500,5.3167,Belgium,BE
Jodoigne,50.7167,4.8667,Belgium,BE
Beloeil,50.5333,3.7167,Belgium,BE
Couvin,50.0500,4.4833,Belgium,BE
Enghien,50.6956,4.0411,Belgium,BE
Wanze,50.5333,5.2167,Belgium,BE
Dinant,50.2667,4.9167,Belgium,BE
Grez-Doiceau,50.7333,4.7000,Belgium,BE
Blegny,50.6667,5.7333,Belgium,BE
Mettet,50.3167,4.6667,Belgium,BE
Esneux,50.5333,5.5667,Belgium,BE
Gerpinnes,50.3333,4.5167,Belgium,BE
Malmedy,50.4167,6.0167,Belgium,BE
Rochefort,50.1667,5.2167,Belgium,BE
Aywaille,50.4667,5.6667,Belgium,BE
Anderlues,50.4000,4.2667,Belgium,BE
Profondeville,50.3833,4.8667,Belgium,BE
Theux,50.5333,5.8167,Belgium,BE
Beyne-Heusay,50.6167,5.6500,Belgium,BE
Bernissart,50.4833,3.6500,Belgium,BE
Chaumont-Gistoux,50.6769,4.7196,Belgium,BE
Durbuy,50.3522,5.4563,Belgium,BE
Florennes,50.2500,4.6167,Belgium,BE
Virton,49.5675,5.5325,Belgium,BE
Seneffe,50.5167,4.2500,Belgium,BE
Farciennes,50.4333,4.5500,Belgium,BE
Ecaussinnes-Lalaing,50.5667,4.1833,Belgium,BE
La Calamine,50.7000,6.0000,Belgium,BE
Villers-la-Ville,50.5833,4.5333,Belgium,BE
Louvain-la-Neuve,50.6667,4.5000,Belgium,BE
Raeren,50.6833,6.1167,Belgium,BE
Court-Saint-Etienne,50.6333,4.5667,Belgium,BE
Braine-le-Chateau,50.6833,4.2667,Belgium,BE
Estaimpuis,50.7000,3.2667,Belgium,BE
Jurbise,50.5333,3.9333,Belgium,BE
Plombieres,50.7333,5.9500,Belgium,BE
Spa,50.4925,5.8642,Belgium,BE
Montignies-le-Tilleul,50.3833,4.3833,Belgium,BE
Cuesmes,50.4361,3.9206,Belgium,BE
Erquelinnes,50.3000,4.1167,Belgium,BE
Welkenraedt,50.6500,5.9667,Belgium,BE
Chimay,50.0500,4.3167,Belgium,BE
Pepinster,50.5667,5.8167,Belgium,BE
Saint-Vith,50.2667,6.1167,Belgium,BE
Awans,50.6667,5.4667,Belgium,BE
Perwez,50.6167,4.8167,Belgium,BE
Juprelle,50.7167,5.5333,Belgium,BE
Philippeville,50.2000,4.5500,Belgium,BE
La Bruyere,50.5000,4.8000,Belgium,BE
Roux,50.4412,4.3926,Belgium,BE
Yvoir,50.3333,4.8833,Belgium,BE
Beauraing,50.1092,4.9567,Belgium,BE
Bassenge,50.7667,5.6000,Belgium,BE
Bertrix,49.8542,5.2533,Belgium,BE
Jalhay,50.5667,5.9667,Belgium,BE
Belize City,17.4986,-88.1886,Belize,BZ
San Pedro,17.9214,-87.9611,Belize,BZ
San Ignacio,17.1588,-89.0696,Belize,BZ
Belmopan,17.2514,-88.7669,Belize,BZ
Corozal,18.4000,-88.4000,Belize,BZ
Orange Walk,18.0750,-88.5583,Belize,BZ
Dangriga,16.9667,-88.2167,Belize,BZ
Punta Gorda,16.1005,-88.8074,Belize,BZ
Banikoara,11.3000,2.4333,Benin,BJ
Kandi,11.1286,2.9369,Benin,BJ
Gogounou,10.8386,2.8361,Benin,BJ
Segbana,10.9278,3.6944,Benin,BJ
Karimama,12.0667,3.1833,Benin,BJ
Founougo,11.4808,2.5322,Benin,BJ
Goumori,11.1833,2.2833,Benin,BJ
Sori,10.7281,2.7825,Benin,BJ
Bagou,10.8147,2.7164,Benin,BJ
Sinmperekou,11.2333,2.4167,Benin,BJ
Toura,11.2436,2.3831,Benin,BJ
Gomparou,11.3000,2.4489,Benin,BJ
Donwari,11.1197,2.8558,Benin,BJ
Sam,11.0333,2.7333,Benin,BJ
Gounarou,10.8667,2.8500,Benin,BJ
Libante,10.7936,3.5828,Benin,BJ
Birni Lafia,11.9783,3.2225,Benin,BJ
Sonsoro,11.0875,2.7597,Benin,BJ
Sokotindji,10.8528,3.4297,Benin,BJ
Malanville,11.8667,3.3833,Benin,BJ
Materi,10.6978,1.0633,Benin,BJ
Kouande,10.3317,1.6914,Benin,BJ
Natitingou,10.3000,1.3667,Benin,BJ
Boukoumbe,10.1833,1.1000,Benin,BJ
Pehonko,10.2283,2.0019,Benin,BJ
Tanguieta,10.6167,1.2667,Benin,BJ
Toukountouna,10.4986,1.3756,Benin,BJ
Kerou,10.8250,2.1094,Benin,BJ
Guene,11.7306,3.2242,Benin,BJ
Tobre,10.2000,2.1333,Benin,BJ
Tantega,10.8500,1.0333,Benin,BJ
Tiahounkossi,10.8167,1.0667,Benin,BJ
Angara-Debou,11.3289,3.0406,Benin,BJ
Garou,11.8053,3.4739,Benin,BJ
Dassari,10.8158,1.1406,Benin,BJ
Briniamaro,10.7411,2.0731,Benin,BJ
Manta,10.3564,1.1056,Benin,BJ
Gouande,10.7828,0.9186,Benin,BJ
Birni,9.9892,1.5269,Benin,BJ
Kountouri,10.4050,0.9425,Benin,BJ
Niemasson,10.3078,2.0378,Benin,BJ
Firou,10.9192,1.9386,Benin,BJ
Tomboutou,11.8550,3.2892,Benin,BJ
Kouarfa,10.4833,1.5167,Benin,BJ
Tayakou,10.5500,1.2000,Benin,BJ
Datori,10.4017,0.7828,Benin,BJ
Takouta,10.3000,1.2000,Benin,BJ
Tanmpegre,10.4800,1.4500,Benin,BJ
Abomey-Calavi,6.4486,2.3556,Benin,BJ
Godome,6.3667,2.3500,Benin,BJ
Allada,6.6500,2.1500,Benin,BJ
Ouidah,6.3667,2.0833,Benin,BJ
So-Awa,6.4667,2.4167,Benin,BJ
Toffo,6.8500,2.0833,Benin,BJ
Tori-Bossito,6.5031,2.1450,Benin,BJ
Golo-Djigbe,6.5403,2.3253,Benin,BJ
Zinvie,6.6167,2.3500,Benin,BJ
Akassato,6.5000,2.3667,Benin,BJ
Segou,6.6167,2.2167,Benin,BJ
Pahou,6.3833,2.2167,Benin,BJ
Hevie,6.4167,2.2500,Benin,BJ
Tori-Cada,6.5833,2.2000,Benin,BJ
Cousse,6.8500,2.1333,Benin,BJ
Lissegazoun,6.6167,2.0833,Benin,BJ
Ouedo-Agueko,6.4963,2.4268,Benin,BJ
Ganvie,6.4667,2.4167,Benin,BJ
Ouedo,6.4833,2.4500,Benin,BJ
Dodji-Bata,6.6833,2.2833,Benin,BJ
Adjarra,6.5333,2.2667,Benin,BJ
Tchaourou,8.8833,2.6000,Benin,BJ
Parakou,9.3500,2.6167,Benin,BJ
Kalale,10.2953,3.3786,Benin,BJ
Ndali,9.8608,2.7181,Benin,BJ
Sinende,10.3447,2.3792,Benin,BJ
Perere,9.7994,2.9928,Benin,BJ
Nikki,9.9333,3.2083,Benin,BJ
Bembereke,10.2250,2.6681,Benin,BJ
Bouka,10.2167,3.1333,Benin,BJ
Bouanri,10.2000,2.8667,Benin,BJ
Biro,9.9000,2.9333,Benin,BJ
Ina,9.9833,2.7167,Benin,BJ
Serarou,9.5833,2.6500,Benin,BJ
Beterou,9.2000,2.2667,Benin,BJ
Sakabansi,10.0442,3.3821,Benin,BJ
Siki,10.1833,2.3833,Benin,BJ
Kika,9.3000,2.2667,Benin,BJ
Ouenou,9.7870,2.6375,Benin,BJ
Gberouboue,10.5333,2.7333,Benin,BJ
Peonga,10.3333,3.2667,Benin,BJ
Derassi,10.1667,3.2667,Benin,BJ
Guinagourou,9.5667,2.9500,Benin,BJ
Serekali,9.9186,3.0434,Benin,BJ
Sanson,9.2833,2.4333,Benin,BJ
Fo-Boure,10.1167,2.4000,Benin,BJ
Basso,10.5000,3.6833,Benin,BJ
Tasso,9.6737,3.2333,Benin,BJ
Glazoue,7.9736,2.2400,Benin,BJ
Dassa-Zoume,7.7500,2.1833,Benin,BJ
Bante,8.4167,1.8833,Benin,BJ
Savalou,7.9333,1.9667,Benin,BJ
Save,8.0333,2.4833,Benin,BJ
Paouignan,7.6937,2.2673,Benin,BJ
Aklanpa,8.1684,2.2320,Benin,BJ
Toui,8.6833,2.6000,Benin,BJ
Gouka,8.1333,1.9667,Benin,BJ
Doume,8.0167,1.6333,Benin,BJ
Pira,8.5000,1.7333,Benin,BJ
Soklogbo,7.6937,2.2673,Benin,BJ
Gbanhi,8.4497,2.4737,Benin,BJ
Kaboua,8.2500,2.6833,Benin,BJ
Kilibo,8.5717,2.6017,Benin,BJ
Dougba,8.4497,2.4737,Benin,BJ
Akpassi,8.4500,1.8833,Benin,BJ
Aplahoue,6.9333,1.6833,Benin,BJ
Djakotome,6.9000,1.7167,Benin,BJ
Lalo,6.9167,1.8833,Benin,BJ
Tota,6.8000,1.7833,Benin,BJ
Toviklin,6.8333,1.8167,Benin,BJ
Azove,6.9500,1.7000,Benin,BJ
Kissa,7.0333,1.7833,Benin,BJ
Togba,7.1000,1.6667,Benin,BJ
Adjahome,7.0618,1.8368,Benin,BJ
Ayomi,6.7833,1.7167,Benin,BJ
Atome-Avegame,7.2333,1.6500,Benin,BJ
Godohou,7.0333,1.7833,Benin,BJ
Sokouhoue,6.9000,1.6667,Benin,BJ
Agame,6.7333,1.7667,Benin,BJ
Lonkly,7.1333,1.6833,Benin,BJ
Ahogbeya,7.0333,1.9167,Benin,BJ
Zoudjame,6.8167,1.8667,Benin,BJ
Lanta,7.1000,1.8667,Benin,BJ
Ouedeme,6.7000,1.6833,Benin,BJ
Locogahoue,6.8000,1.7830,Benin,BJ
Dogbo,6.8167,1.7833,Benin,BJ
Djougou,9.7000,1.6667,Benin,BJ
Bassila,9.0167,1.6667,Benin,BJ
Ouake,9.6617,1.3847,Benin,BJ
Kopargo,9.8375,1.5481,Benin,BJ
Kolokonde,9.9000,1.7667,Benin,BJ
Onklou,9.5000,1.9833,Benin,BJ
Pabegou,9.8333,1.5492,Benin,BJ
Massi,9.9167,1.4667,Benin,BJ
Bougou,9.4333,1.6167,Benin,BJ
Barei,9.6833,1.5667,Benin,BJ
Semere,9.6268,1.4515,Benin,BJ
Cotonou,6.3667,2.4333,Benin,BJ
Lokossa,6.6333,1.7167,Benin,BJ
Peda-Houeyogbe,6.4500,1.9333,Benin,BJ
Bopa,6.5833,1.9833,Benin,BJ
Grand-Popo,6.2833,1.8333,Benin,BJ
Athieme,6.5833,1.6667,Benin,BJ
Come,6.4000,1.8833,Benin,BJ
Doutou,6.5500,1.8833,Benin,BJ
Lobogo,6.6333,1.9000,Benin,BJ
Dahe,6.5167,1.9500,Benin,BJ
Adohoun,6.6333,1.6667,Benin,BJ
Agatogba,6.4000,1.9000,Benin,BJ
Agoue,6.2500,1.6833,Benin,BJ
Porto-Novo,6.4972,2.6050,Benin,BJ
Avrankou,6.5500,2.6667,Benin,BJ
Misserete,6.5625,2.5853,Benin,BJ
Adjarra,6.5333,2.6667,Benin,BJ
Dangbo,6.5000,2.6833,Benin,BJ
Adjohon,6.7000,2.4667,Benin,BJ
Ekpe,6.4000,2.5333,Benin,BJ
Agblangandan,6.3667,2.5167,Benin,BJ
Bonou,6.9000,2.4500,Benin,BJ
Vakon,6.5167,2.5667,Benin,BJ
Atchoupa,6.5333,2.6333,Benin,BJ
Tohoue,6.3967,2.5853,Benin,BJ
Azaourisse,6.6944,2.5075,Benin,BJ
Meridjonou,6.4619,2.6774,Benin,BJ
Katagon,6.6333,2.5833,Benin,BJ
Hozin,6.5333,2.5500,Benin,BJ
Dagbe,6.5667,2.6833,Benin,BJ
Ouando,6.5542,2.6616,Benin,BJ
Avabodji,6.4533,2.5275,Benin,BJ
Ketou,7.3581,2.6075,Benin,BJ
